<?xml version="1.0" encoding="UTF-8" standalone="no" ?>
<gpx xmlns:xsi="http://www.w3.org/2001/XMLSchema-instance" xsi:schemaLocation="http://www.topografix.com/GPX/1/1 http://www.topografix.com/GPX/1/1/gpx.xsd" version="1.1" creator="Coordinates script v2022.10.21" xmlns="http://www.topografix.com/GPX/1/1">
  <wpt lat="37.50833333" lon="-1.90805556">
    <name>AL001 Abejuela</name>
    <sym>Circle</sym>
    <extensions>
      <identifier />
      <category />
    </extensions>
  </wpt>
  <wpt lat="37.14361111" lon="-2.77944444">
    <name>AL002 Abla</name>
    <sym>Circle</sym>
    <extensions>
      <identifier />
      <category />
    </extensions>
  </wpt>
  <wpt lat="37.13611111" lon="-2.79416667">
    <name>AL003 Abrucena</name>
    <sym>Circle</sym>
    <extensions>
      <identifier />
      <category />
    </extensions>
  </wpt>
  <wpt lat="36.75277778" lon="-3.02111111">
    <name>AL004 Adra</name>
    <sym>Circle</sym>
    <extensions>
      <identifier />
      <category />
    </extensions>
  </wpt>
  <wpt lat="36.94277778" lon="-1.93361111">
    <name>AL005 Agua Amarga</name>
    <sym>Circle</sym>
    <extensions>
      <identifier />
      <category />
    </extensions>
  </wpt>
  <wpt lat="37.07333333" lon="-1.86583333">
    <name>AL006 Agua de Medio</name>
    <sym>Circle</sym>
    <extensions>
      <identifier />
      <category />
    </extensions>
  </wpt>
  <wpt lat="36.81944444" lon="-2.56416667">
    <name>AL007 Aguadulce</name>
    <sym>Circle</sym>
    <extensions>
      <identifier />
      <category />
    </extensions>
  </wpt>
  <wpt lat="37.28861111" lon="-2.18111111">
    <name>AL008 Albanchez</name>
    <sym>Circle</sym>
    <extensions>
      <identifier />
      <category />
    </extensions>
  </wpt>
  <wpt lat="37.03972222" lon="-2.61944444">
    <name>AL009 Alboloduy</name>
    <sym>Circle</sym>
    <extensions>
      <identifier />
      <category />
    </extensions>
  </wpt>
  <wpt lat="37.39333333" lon="-2.14138889">
    <name>AL010 Albox</name>
    <sym>Circle</sym>
    <extensions>
      <identifier />
      <category />
    </extensions>
  </wpt>
  <wpt lat="36.83944444" lon="-2.93416667">
    <name>AL011 Alcaudique</name>
    <sym>Circle</sym>
    <extensions>
      <identifier />
      <category />
    </extensions>
  </wpt>
  <wpt lat="36.97500000" lon="-2.95944444">
    <name>AL012 Alcolea</name>
    <sym>Circle</sym>
    <extensions>
      <identifier />
      <category />
    </extensions>
  </wpt>
  <wpt lat="37.33805556" lon="-2.59583333">
    <name>AL013 Alcontar</name>
    <sym>Circle</sym>
    <extensions>
      <identifier />
      <category />
    </extensions>
  </wpt>
  <wpt lat="37.23944444" lon="-2.26583333">
    <name>AL014 Alcudia de Monteagud</name>
    <sym>Circle</sym>
    <extensions>
      <identifier />
      <category />
    </extensions>
  </wpt>
  <wpt lat="37.30388889" lon="-2.58000000">
    <name>AL015 Aldeire</name>
    <sym>Circle</sym>
    <extensions>
      <identifier />
      <category />
    </extensions>
  </wpt>
  <wpt lat="37.14611111" lon="-1.95861111">
    <name>AL016 Alfaix</name>
    <sym>Circle</sym>
    <extensions>
      <identifier />
      <category />
    </extensions>
  </wpt>
  <wpt lat="36.99222222" lon="-2.58777778">
    <name>AL017 Alhabia</name>
    <sym>Circle</sym>
    <extensions>
      <identifier />
      <category />
    </extensions>
  </wpt>
  <wpt lat="36.96027778" lon="-2.56888889">
    <name>AL018 Alhama de Almeria</name>
    <sym>Circle</sym>
    <extensions>
      <identifier />
      <category />
    </extensions>
  </wpt>
  <wpt lat="36.96861111" lon="-2.60166667">
    <name>AL019 Alicun</name>
    <sym>Circle</sym>
    <extensions>
      <identifier />
      <category />
    </extensions>
  </wpt>
  <wpt lat="36.75055556" lon="-2.21083333">
    <name>AL020 Almadrava de Monteleva</name>
    <sym>Circle</sym>
    <extensions>
      <identifier />
      <category />
    </extensions>
  </wpt>
  <wpt lat="37.39027778" lon="-1.99333333">
    <name>AL021 Almajalejo</name>
    <sym>Circle</sym>
    <extensions>
      <identifier />
      <category />
    </extensions>
  </wpt>
  <wpt lat="37.35166667" lon="-2.13472222">
    <name>AL022 Almanzora</name>
    <sym>Circle</sym>
    <extensions>
      <identifier />
      <category />
    </extensions>
  </wpt>
  <wpt lat="36.84972222" lon="-2.45638889">
    <name>AL023 Almeria</name>
    <sym>Circle</sym>
    <extensions>
      <identifier />
      <category />
    </extensions>
  </wpt>
  <wpt lat="36.69666667" lon="-2.78277778">
    <name>AL024 Almerimar</name>
    <sym>Circle</sym>
    <extensions>
      <identifier />
      <category />
    </extensions>
  </wpt>
  <wpt lat="37.30000000" lon="-2.78944444">
    <name>AL025 Almocita</name>
    <sym>Circle</sym>
    <extensions>
      <identifier />
      <category />
    </extensions>
  </wpt>
  <wpt lat="37.25000000" lon="-2.58972222">
    <name>AL026 Alsodux</name>
    <sym>Circle</sym>
    <extensions>
      <identifier />
      <category />
    </extensions>
  </wpt>
  <wpt lat="37.24666667" lon="-1.91916667">
    <name>AL027 Antas</name>
    <sym>Circle</sym>
    <extensions>
      <identifier />
      <category />
    </extensions>
  </wpt>
  <wpt lat="37.35388889" lon="-2.07416667">
    <name>AL028 Arboleas</name>
    <sym>Circle</sym>
    <extensions>
      <identifier />
      <category />
    </extensions>
  </wpt>
  <wpt lat="37.35166667" lon="-2.41027778">
    <name>AL029 Armuña de Almanzora</name>
    <sym>Circle</sym>
    <extensions>
      <identifier />
      <category />
    </extensions>
  </wpt>
  <wpt lat="36.88305556" lon="-2.16194444">
    <name>AL030 Atochares</name>
    <sym>Circle</sym>
    <extensions>
      <identifier />
      <category />
    </extensions>
  </wpt>
  <wpt lat="37.16166667" lon="-2.62722222">
    <name>AL031 Aulago</name>
    <sym>Circle</sym>
    <extensions>
      <identifier />
      <category />
    </extensions>
  </wpt>
  <wpt lat="37.26277778" lon="-2.45333333">
    <name>AL032 Bacares</name>
    <sym>Circle</sym>
    <extensions>
      <identifier />
      <category />
    </extensions>
  </wpt>
  <wpt lat="36.75083333" lon="-2.90305556">
    <name>AL033 Balanegra</name>
    <sym>Circle</sym>
    <extensions>
      <identifier />
      <category />
    </extensions>
  </wpt>
  <wpt lat="36.73305556" lon="-2.88555556">
    <name>AL034 Balerma</name>
    <sym>Circle</sym>
    <extensions>
      <identifier />
      <category />
    </extensions>
  </wpt>
  <wpt lat="37.03305556" lon="-2.99444444">
    <name>AL035 Bayarcal</name>
    <sym>Circle</sym>
    <extensions>
      <identifier />
      <category />
    </extensions>
  </wpt>
  <wpt lat="37.33055556" lon="-2.43333333">
    <name>AL036 Bayarque</name>
    <sym>Circle</sym>
    <extensions>
      <identifier />
      <category />
    </extensions>
  </wpt>
  <wpt lat="37.19166667" lon="-1.98111111">
    <name>AL037 Bedar</name>
    <sym>Circle</sym>
    <extensions>
      <identifier />
      <category />
    </extensions>
  </wpt>
  <wpt lat="37.88333333" lon="-2.79027778">
    <name>AL038 Beires</name>
    <sym>Circle</sym>
    <extensions>
      <identifier />
      <category />
    </extensions>
  </wpt>
  <wpt lat="37.59527778" lon="-2.12138889">
    <name>AL039 Belaimi</name>
    <sym>Circle</sym>
    <extensions>
      <identifier />
      <category />
    </extensions>
  </wpt>
  <wpt lat="36.92638889" lon="-2.45666667">
    <name>AL040 Benahadux</name>
    <sym>Circle</sym>
    <extensions>
      <identifier />
      <category />
    </extensions>
  </wpt>
  <wpt lat="36.99138889" lon="-2.85861111">
    <name>AL041 Benecid</name>
    <sym>Circle</sym>
    <extensions>
      <identifier />
      <category />
    </extensions>
  </wpt>
  <wpt lat="36.88472222" lon="-3.02027778">
    <name>AL042 Beninar</name>
    <sym>Circle</sym>
    <extensions>
      <identifier />
      <category />
    </extensions>
  </wpt>
  <wpt lat="37.23305556" lon="-2.23750000">
    <name>AL043 Benitagla</name>
    <sym>Circle</sym>
    <extensions>
      <identifier />
      <category />
    </extensions>
  </wpt>
  <wpt lat="37.24638889" lon="-2.29194444">
    <name>AL044 Benitofare</name>
    <sym>Circle</sym>
    <extensions>
      <identifier />
      <category />
    </extensions>
  </wpt>
  <wpt lat="37.21472222" lon="-2.24000000">
    <name>AL045 Benizalón</name>
    <sym>Circle</sym>
    <extensions>
      <identifier />
      <category />
    </extensions>
  </wpt>
  <wpt lat="36.99055556" lon="-2.62055556">
    <name>AL046 Bentarique</name>
    <sym>Circle</sym>
    <extensions>
      <identifier />
      <category />
    </extensions>
  </wpt>
  <wpt lat="36.84722222" lon="-2.94805556">
    <name>AL047 Berja</name>
    <sym>Circle</sym>
    <extensions>
      <identifier />
      <category />
    </extensions>
  </wpt>
  <wpt lat="37.59972222" lon="-2.10333333">
    <name>AL048 Bolaimi</name>
    <sym>Circle</sym>
    <extensions>
      <identifier />
      <category />
    </extensions>
  </wpt>
  <wpt lat="37.27500000" lon="-1.81055556">
    <name>AL049 Bujulu</name>
    <sym>Circle</sym>
    <extensions>
      <identifier />
      <category />
    </extensions>
  </wpt>
  <wpt lat="37.22111111" lon="-2.53916667">
    <name>AL050 Calar Alto</name>
    <sym>Circle</sym>
    <extensions>
      <identifier />
      <category />
    </extensions>
  </wpt>
  <wpt lat="37.06777778" lon="-2.04722222">
    <name>AL051 Campico</name>
    <sym>Circle</sym>
    <extensions>
      <identifier />
      <category />
    </extensions>
  </wpt>
  <wpt lat="36.93805556" lon="-2.13194444">
    <name>AL052 Campohermoso</name>
    <sym>Circle</sym>
    <extensions>
      <identifier />
      <category />
    </extensions>
  </wpt>
  <wpt lat="37.71666667" lon="-2.74000000">
    <name>AL053 Canjayar</name>
    <sym>Circle</sym>
    <extensions>
      <identifier />
      <category />
    </extensions>
  </wpt>
  <wpt lat="37.35416667" lon="-2.19055556">
    <name>AL054 Cantoria</name>
    <sym>Circle</sym>
    <extensions>
      <identifier />
      <category />
    </extensions>
  </wpt>
  <wpt lat="36.88416667" lon="-2.73333333">
    <name>AL055 Caracuz</name>
    <sym>Circle</sym>
    <extensions>
      <identifier />
      <category />
    </extensions>
  </wpt>
  <wpt lat="37.11666667" lon="-1.89472222">
    <name>AL056 Carboneras</name>
    <sym>Circle</sym>
    <extensions>
      <identifier />
      <category />
    </extensions>
  </wpt>
  <wpt lat="37.70416667" lon="-2.27416667">
    <name>AL057 Casablanca</name>
    <sym>Circle</sym>
    <extensions>
      <identifier />
      <category />
    </extensions>
  </wpt>
  <wpt lat="36.88638889" lon="-2.92833333">
    <name>AL058 Castala</name>
    <sym>Circle</sym>
    <extensions>
      <identifier />
      <category />
    </extensions>
  </wpt>
  <wpt lat="36.83333333" lon="-2.49777778">
    <name>AL059 Castel del Rey</name>
    <sym>Circle</sym>
    <extensions>
      <identifier />
      <category />
    </extensions>
  </wpt>
  <wpt lat="37.18611111" lon="-2.44000000">
    <name>AL060 Castro de Filabres</name>
    <sym>Circle</sym>
    <extensions>
      <identifier />
      <category />
    </extensions>
  </wpt>
  <wpt lat="37.37472222" lon="-2.44194444">
    <name>AL061 Cela</name>
    <sym>Circle</sym>
    <extensions>
      <identifier />
      <category />
    </extensions>
  </wpt>
  <wpt lat="36.83472222" lon="-2.87027778">
    <name>AL062 Celin</name>
    <sym>Circle</sym>
    <extensions>
      <identifier />
      <category />
    </extensions>
  </wpt>
  <wpt lat="37.26944444" lon="-2.25722222">
    <name>AL063 Chercos</name>
    <sym>Circle</sym>
    <extensions>
      <identifier />
      <category />
    </extensions>
  </wpt>
  <wpt lat="36.90027778" lon="-2.93916667">
    <name>AL064 Chiran</name>
    <sym>Circle</sym>
    <extensions>
      <identifier />
      <category />
    </extensions>
  </wpt>
  <wpt lat="37.59805556" lon="-2.26694444">
    <name>AL065 Chirivel</name>
    <sym>Circle</sym>
    <extensions>
      <identifier />
      <category />
    </extensions>
  </wpt>
  <wpt lat="37.26444444" lon="-2.20972222">
    <name>AL066 Cobdar</name>
    <sym>Circle</sym>
    <extensions>
      <identifier />
      <category />
    </extensions>
  </wpt>
  <wpt lat="36.75944444" lon="-2.65361111">
    <name>AL067 Cortijada de Marin</name>
    <sym>Circle</sym>
    <extensions>
      <identifier />
      <category />
    </extensions>
  </wpt>
  <wpt lat="36.87666667" lon="-2.44777778">
    <name>AL068 Cortijo de los Callejones</name>
    <sym>Circle</sym>
    <extensions>
      <identifier />
      <category />
    </extensions>
  </wpt>
  <wpt lat="37.30500000" lon="-1.87944444">
    <name>AL069 Cuevas de Almanzora</name>
    <sym>Circle</sym>
    <extensions>
      <identifier />
      <category />
    </extensions>
  </wpt>
  <wpt lat="36.82527778" lon="-2.87194444">
    <name>AL070 Dalías</name>
    <sym>Circle</sym>
    <extensions>
      <identifier />
      <category />
    </extensions>
  </wpt>
  <wpt lat="36.92055556" lon="-3.02750000">
    <name>AL071 Darrical</name>
    <sym>Circle</sym>
    <extensions>
      <identifier />
      <category />
    </extensions>
  </wpt>
  <wpt lat="37.13694444" lon="-2.71472222">
    <name>AL072 Doña Maria</name>
    <sym>Circle</sym>
    <extensions>
      <identifier />
      <category />
    </extensions>
  </wpt>
  <wpt lat="37.31222222" lon="-1.88388889">
    <name>AL073 El Alhanchete</name>
    <sym>Circle</sym>
    <extensions>
      <identifier />
      <category />
    </extensions>
  </wpt>
  <wpt lat="37.15944444" lon="-2.53944444">
    <name>AL074 El Almendral</name>
    <sym>Circle</sym>
    <extensions>
      <identifier />
      <category />
    </extensions>
  </wpt>
  <wpt lat="36.85500000" lon="-2.35500000">
    <name>AL075 El Alquian</name>
    <sym>Circle</sym>
    <extensions>
      <identifier />
      <category />
    </extensions>
  </wpt>
  <wpt lat="36.99833333" lon="-1.97027778">
    <name>AL076 El Argamason</name>
    <sym>Circle</sym>
    <extensions>
      <identifier />
      <category />
    </extensions>
  </wpt>
  <wpt lat="37.34277778" lon="-2.06750000">
    <name>AL077 El Arroyo Aceituno</name>
    <sym>Circle</sym>
    <extensions>
      <identifier />
      <category />
    </extensions>
  </wpt>
  <wpt lat="37.27500000" lon="-1.77916667">
    <name>AL078 El Arteal</name>
    <sym>Circle</sym>
    <extensions>
      <identifier />
      <category />
    </extensions>
  </wpt>
  <wpt lat="37.09000000" lon="-2.17527778">
    <name>AL079 El Barranco de los Lobos</name>
    <sym>Circle</sym>
    <extensions>
      <identifier />
      <category />
    </extensions>
  </wpt>
  <wpt lat="36.84111111" lon="-2.19555556">
    <name>AL080 El Barranquete</name>
    <sym>Circle</sym>
    <extensions>
      <identifier />
      <category />
    </extensions>
  </wpt>
  <wpt lat="36.82916667" lon="-2.40805556">
    <name>AL081 El Bobar</name>
    <sym>Circle</sym>
    <extensions>
      <identifier />
      <category />
    </extensions>
  </wpt>
  <wpt lat="36.78222222" lon="-2.24111111">
    <name>AL082 El Cabo de Gata</name>
    <sym>Circle</sym>
    <extensions>
      <identifier />
      <category />
    </extensions>
  </wpt>
  <wpt lat="37.53611111" lon="-2.21305556">
    <name>AL083 El Cantal</name>
    <sym>Circle</sym>
    <extensions>
      <identifier />
      <category />
    </extensions>
  </wpt>
  <wpt lat="37.69222222" lon="-2.04833333">
    <name>AL084 El Cercado</name>
    <sym>Circle</sym>
    <extensions>
      <identifier />
      <category />
    </extensions>
  </wpt>
  <wpt lat="37.48250000" lon="-2.38722222">
    <name>AL085 El Chaparral Bajo</name>
    <sym>Circle</sym>
    <extensions>
      <identifier />
      <category />
    </extensions>
  </wpt>
  <wpt lat="37.17972222" lon="-2.07305556">
    <name>AL086 El Chive</name>
    <sym>Circle</sym>
    <extensions>
      <identifier />
      <category />
    </extensions>
  </wpt>
  <wpt lat="36.91638889" lon="-2.45333333">
    <name>AL087 El Chuche</name>
    <sym>Circle</sym>
    <extensions>
      <identifier />
      <category />
    </extensions>
  </wpt>
  <wpt lat="36.88638889" lon="-2.97333333">
    <name>AL088 El Cid</name>
    <sym>Circle</sym>
    <extensions>
      <identifier />
      <category />
    </extensions>
  </wpt>
  <wpt lat="37.40694444" lon="-1.67222222">
    <name>AL089 El Cocon</name>
    <sym>Circle</sym>
    <extensions>
      <identifier />
      <category />
    </extensions>
  </wpt>
  <wpt lat="37.59111111" lon="-2.36138889">
    <name>AL090 El Contador</name>
    <sym>Circle</sym>
    <extensions>
      <identifier />
      <category />
    </extensions>
  </wpt>
  <wpt lat="36.77777778" lon="-2.81916667">
    <name>AL091 El Ejido</name>
    <sym>Circle</sym>
    <extensions>
      <identifier />
      <category />
    </extensions>
  </wpt>
  <wpt lat="37.39777778" lon="-2.59000000">
    <name>AL092 El Hijate</name>
    <sym>Circle</sym>
    <extensions>
      <identifier />
      <category />
    </extensions>
  </wpt>
  <wpt lat="37.57833333" lon="-2.24138889">
    <name>AL093 El Jali</name>
    <sym>Circle</sym>
    <extensions>
      <identifier />
      <category />
    </extensions>
  </wpt>
  <wpt lat="37.33777778" lon="-1.76722222">
    <name>AL094 El Largo</name>
    <sym>Circle</sym>
    <extensions>
      <identifier />
      <category />
    </extensions>
  </wpt>
  <wpt lat="37.06666667" lon="-1.93222222">
    <name>AL095 El Llano de Don Antonio</name>
    <sym>Circle</sym>
    <extensions>
      <identifier />
      <category />
    </extensions>
  </wpt>
  <wpt lat="37.21472222" lon="-2.02527778">
    <name>AL096 El Marchal</name>
    <sym>Circle</sym>
    <extensions>
      <identifier />
      <category />
    </extensions>
  </wpt>
  <wpt lat="37.52694444" lon="-2.23166667">
    <name>AL097 El Margen</name>
    <sym>Circle</sym>
    <extensions>
      <identifier />
      <category />
    </extensions>
  </wpt>
  <wpt lat="37.12333333" lon="-2.12083333">
    <name>AL098 El Mayordomo</name>
    <sym>Circle</sym>
    <extensions>
      <identifier />
      <category />
    </extensions>
  </wpt>
  <wpt lat="36.82472222" lon="-2.53527778">
    <name>AL099 El Palmer</name>
    <sym>Circle</sym>
    <extensions>
      <identifier />
      <category />
    </extensions>
  </wpt>
  <wpt lat="36.81027778" lon="-2.59972222">
    <name>AL100 El Parador</name>
    <sym>Circle</sym>
    <extensions>
      <identifier />
      <category />
    </extensions>
  </wpt>
  <wpt lat="36.77361111" lon="-2.96361111">
    <name>AL101 El Pardo</name>
    <sym>Circle</sym>
    <extensions>
      <identifier />
      <category />
    </extensions>
  </wpt>
  <wpt lat="37.67444444" lon="-2.02138889">
    <name>AL102 El Piar de Abajo</name>
    <sym>Circle</sym>
    <extensions>
      <identifier />
      <category />
    </extensions>
  </wpt>
  <wpt lat="37.19166667" lon="-2.09805556">
    <name>AL103 El Pilar</name>
    <sym>Circle</sym>
    <extensions>
      <identifier />
      <category />
    </extensions>
  </wpt>
  <wpt lat="37.24194444" lon="-2.04083333">
    <name>AL104 El Pocico</name>
    <sym>Circle</sym>
    <extensions>
      <identifier />
      <category />
    </extensions>
  </wpt>
  <wpt lat="36.79277778" lon="-2.10916667">
    <name>AL105 El Pozo de los Frailes</name>
    <sym>Circle</sym>
    <extensions>
      <identifier />
      <category />
    </extensions>
  </wpt>
  <wpt lat="37.33750000" lon="-1.69250000">
    <name>AL106 El Pozo del Esparto</name>
    <sym>Circle</sym>
    <extensions>
      <identifier />
      <category />
    </extensions>
  </wpt>
  <wpt lat="36.75777778" lon="-2.98555556">
    <name>AL107 El Puente del Rio</name>
    <sym>Circle</sym>
    <extensions>
      <identifier />
      <category />
    </extensions>
  </wpt>
  <wpt lat="37.51583333" lon="-1.98361111">
    <name>AL108 El Puertecito</name>
    <sym>Circle</sym>
    <extensions>
      <identifier />
      <category />
    </extensions>
  </wpt>
  <wpt lat="37.17305556" lon="-2.13083333">
    <name>AL109 El Puntal</name>
    <sym>Circle</sym>
    <extensions>
      <identifier />
      <category />
    </extensions>
  </wpt>
  <wpt lat="37.47694444" lon="-2.36111111">
    <name>AL110 El Puntal</name>
    <sym>Circle</sym>
    <extensions>
      <identifier />
      <category />
    </extensions>
  </wpt>
  <wpt lat="37.26277778" lon="-1.91250000">
    <name>AL111 El Real</name>
    <sym>Circle</sym>
    <extensions>
      <identifier />
      <category />
    </extensions>
  </wpt>
  <wpt lat="36.83888889" lon="-2.31388889">
    <name>AL112 El Retamar</name>
    <sym>Circle</sym>
    <extensions>
      <identifier />
      <category />
    </extensions>
  </wpt>
  <wpt lat="36.81722222" lon="-2.99000000">
    <name>AL113 El Rio Chico</name>
    <sym>Circle</sym>
    <extensions>
      <identifier />
      <category />
    </extensions>
  </wpt>
  <wpt lat="36.82250000" lon="-3.02583333">
    <name>AL114 El Rio Grande</name>
    <sym>Circle</sym>
    <extensions>
      <identifier />
      <category />
    </extensions>
  </wpt>
  <wpt lat="36.75555556" lon="-2.13888889">
    <name>AL115 El Romeral</name>
    <sym>Circle</sym>
    <extensions>
      <identifier />
      <category />
    </extensions>
  </wpt>
  <wpt lat="37.40555556" lon="-1.90972222">
    <name>AL116 El Salvador</name>
    <sym>Circle</sym>
    <extensions>
      <identifier />
      <category />
    </extensions>
  </wpt>
  <wpt lat="36.73944444" lon="-2.66083333">
    <name>AL117 El Solanillo</name>
    <sym>Circle</sym>
    <extensions>
      <identifier />
      <category />
    </extensions>
  </wpt>
  <wpt lat="36.88111111" lon="-2.20500000">
    <name>AL118 El Viso</name>
    <sym>Circle</sym>
    <extensions>
      <identifier />
      <category />
    </extensions>
  </wpt>
  <wpt lat="36.87944444" lon="-2.60083333">
    <name>AL119 Enix</name>
    <sym>Circle</sym>
    <extensions>
      <identifier />
      <category />
    </extensions>
  </wpt>
  <wpt lat="37.18055556" lon="-2.73416667">
    <name>AL120 Escullar</name>
    <sym>Circle</sym>
    <extensions>
      <identifier />
      <category />
    </extensions>
  </wpt>
  <wpt lat="36.86833333" lon="-2.65777778">
    <name>AL121 Felix</name>
    <sym>Circle</sym>
    <extensions>
      <identifier />
      <category />
    </extensions>
  </wpt>
  <wpt lat="36.91333333" lon="-2.06888889">
    <name>AL122 Fernan Perez</name>
    <sym>Circle</sym>
    <extensions>
      <identifier />
      <category />
    </extensions>
  </wpt>
  <wpt lat="37.36222222" lon="-2.26722222">
    <name>AL123 Fines</name>
    <sym>Circle</sym>
    <extensions>
      <identifier />
      <category />
    </extensions>
  </wpt>
  <wpt lat="37.17222222" lon="-2.83972222">
    <name>AL124 Fiñana</name>
    <sym>Circle</sym>
    <extensions>
      <identifier />
      <category />
    </extensions>
  </wpt>
  <wpt lat="36.98166667" lon="-2.85611111">
    <name>AL125 Fondon</name>
    <sym>Circle</sym>
    <extensions>
      <identifier />
      <category />
    </extensions>
  </wpt>
  <wpt lat="36.98750000" lon="-2.87583333">
    <name>AL126 Fuente Victoria</name>
    <sym>Circle</sym>
    <extensions>
      <identifier />
      <category />
    </extensions>
  </wpt>
  <wpt lat="36.95472222" lon="-2.48972222">
    <name>AL127 Gador</name>
    <sym>Circle</sym>
    <extensions>
      <identifier />
      <category />
    </extensions>
  </wpt>
  <wpt lat="37.65000000" lon="-1.98055556">
    <name>AL128 Gafares</name>
    <sym>Circle</sym>
    <extensions>
      <identifier />
      <category />
    </extensions>
  </wpt>
  <wpt lat="37.05916667" lon="-2.01944444">
    <name>AL129 Gafarrillos</name>
    <sym>Circle</sym>
    <extensions>
      <identifier />
      <category />
    </extensions>
  </wpt>
  <wpt lat="36.80750000" lon="-2.63777778">
    <name>AL130 Gangosa Vistasol</name>
    <sym>Circle</sym>
    <extensions>
      <identifier />
      <category />
    </extensions>
  </wpt>
  <wpt lat="37.42083333" lon="-1.82166667">
    <name>AL131 Garcia</name>
    <sym>Circle</sym>
    <extensions>
      <identifier />
      <category />
    </extensions>
  </wpt>
  <wpt lat="37.18750000" lon="-1.81944444">
    <name>AL132 Garrucha</name>
    <sym>Circle</sym>
    <extensions>
      <identifier />
      <category />
    </extensions>
  </wpt>
  <wpt lat="37.11916667" lon="-2.54166667">
    <name>AL133 Gergal</name>
    <sym>Circle</sym>
    <extensions>
      <identifier />
      <category />
    </extensions>
  </wpt>
  <wpt lat="37.49361111" lon="-1.87361111">
    <name>AL134 Goñar</name>
    <sym>Circle</sym>
    <extensions>
      <identifier />
      <category />
    </extensions>
  </wpt>
  <wpt lat="36.75055556" lon="-3.07333333">
    <name>AL135 Guainos Bajos</name>
    <sym>Circle</sym>
    <extensions>
      <identifier />
      <category />
    </extensions>
  </wpt>
  <wpt lat="36.70388889" lon="-2.84194444">
    <name>AL136 Guardias Viejas</name>
    <sym>Circle</sym>
    <extensions>
      <identifier />
      <category />
    </extensions>
  </wpt>
  <wpt lat="37.50000000" lon="-2.95416667">
    <name>AL137 Guarros</name>
    <sym>Circle</sym>
    <extensions>
      <identifier />
      <category />
    </extensions>
  </wpt>
  <wpt lat="37.35027778" lon="-1.77833333">
    <name>AL138 Guazamara</name>
    <sym>Circle</sym>
    <extensions>
      <identifier />
      <category />
    </extensions>
  </wpt>
  <wpt lat="37.38666667" lon="-2.49833333">
    <name>AL139 Higueral</name>
    <sym>Circle</sym>
    <extensions>
      <identifier />
      <category />
    </extensions>
  </wpt>
  <wpt lat="36.89500000" lon="-2.99861111">
    <name>AL140 Hirmes</name>
    <sym>Circle</sym>
    <extensions>
      <identifier />
      <category />
    </extensions>
  </wpt>
  <wpt lat="36.87472222" lon="-2.02833333">
    <name>AL141 Hortichuelas</name>
    <sym>Circle</sym>
    <extensions>
      <identifier />
      <category />
    </extensions>
  </wpt>
  <wpt lat="36.98861111" lon="-2.22194444">
    <name>AL142 Huebro</name>
    <sym>Circle</sym>
    <extensions>
      <identifier />
      <category />
    </extensions>
  </wpt>
  <wpt lat="36.96944444" lon="-2.60833333">
    <name>AL143 Huecija</name>
    <sym>Circle</sym>
    <extensions>
      <identifier />
      <category />
    </extensions>
  </wpt>
  <wpt lat="37.39250000" lon="-1.94111111">
    <name>AL144 Huercal Overa</name>
    <sym>Circle</sym>
    <extensions>
      <identifier />
      <category />
    </extensions>
  </wpt>
  <wpt lat="36.88750000" lon="-2.43722222">
    <name>AL145 Huercal de Almeria</name>
    <sym>Circle</sym>
    <extensions>
      <identifier />
      <category />
    </extensions>
  </wpt>
  <wpt lat="36.98722222" lon="-2.63861111">
    <name>AL146 Illar</name>
    <sym>Circle</sym>
    <extensions>
      <identifier />
      <category />
    </extensions>
  </wpt>
  <wpt lat="36.99750000" lon="-2.65972222">
    <name>AL147 Instincion</name>
    <sym>Circle</sym>
    <extensions>
      <identifier />
      <category />
    </extensions>
  </wpt>
  <wpt lat="37.42277778" lon="-2.56166667">
    <name>AL148 Jauca Alta</name>
    <sym>Circle</sym>
    <extensions>
      <identifier />
      <category />
    </extensions>
  </wpt>
  <wpt lat="37.21972222" lon="-2.16666667">
    <name>AL149 Jauro</name>
    <sym>Circle</sym>
    <extensions>
      <identifier />
      <category />
    </extensions>
  </wpt>
  <wpt lat="36.75250000" lon="-3.09388889">
    <name>AL150 La Alcazaba</name>
    <sym>Circle</sym>
    <extensions>
      <identifier />
      <category />
    </extensions>
  </wpt>
  <wpt lat="37.70777778" lon="-2.24666667">
    <name>AL151 La Alfahuara</name>
    <sym>Circle</sym>
    <extensions>
      <identifier />
      <category />
    </extensions>
  </wpt>
  <wpt lat="37.35583333" lon="-2.04083333">
    <name>AL152 La Alfoquia</name>
    <sym>Circle</sym>
    <extensions>
      <identifier />
      <category />
    </extensions>
  </wpt>
  <wpt lat="36.77916667" lon="-3.23333333">
    <name>AL153 La Alqueria</name>
    <sym>Circle</sym>
    <extensions>
      <identifier />
      <category />
    </extensions>
  </wpt>
  <wpt lat="37.56833333" lon="-2.32638889">
    <name>AL154 La Aspilla</name>
    <sym>Circle</sym>
    <extensions>
      <identifier />
      <category />
    </extensions>
  </wpt>
  <wpt lat="36.99000000" lon="-2.73472222">
    <name>AL155 La Barriada de Alcora</name>
    <sym>Circle</sym>
    <extensions>
      <identifier />
      <category />
    </extensions>
  </wpt>
  <wpt lat="37.79777778" lon="-2.28472222">
    <name>AL156 La Cañada de Cañepla</name>
    <sym>Circle</sym>
    <extensions>
      <identifier />
      <category />
    </extensions>
  </wpt>
  <wpt lat="36.84444444" lon="-2.40805556">
    <name>AL157 La Cañada de San Urbano</name>
    <sym>Circle</sym>
    <extensions>
      <identifier />
      <category />
    </extensions>
  </wpt>
  <wpt lat="37.09277778" lon="-1.94166667">
    <name>AL158 La Carrasca</name>
    <sym>Circle</sym>
    <extensions>
      <identifier />
      <category />
    </extensions>
  </wpt>
  <wpt lat="37.03777778" lon="-1.95833333">
    <name>AL159 La Cueva del Pájaro</name>
    <sym>Circle</sym>
    <extensions>
      <identifier />
      <category />
    </extensions>
  </wpt>
  <wpt lat="37.11083333" lon="-2.59083333">
    <name>AL160 La Estación</name>
    <sym>Circle</sym>
    <extensions>
      <identifier />
      <category />
    </extensions>
  </wpt>
  <wpt lat="37.18611111" lon="-2.83888889">
    <name>AL161 La Estación</name>
    <sym>Circle</sym>
    <extensions>
      <identifier />
      <category />
    </extensions>
  </wpt>
  <wpt lat="36.74500000" lon="-2.20472222">
    <name>AL162 La Fabriquilla</name>
    <sym>Circle</sym>
    <extensions>
      <identifier />
      <category />
    </extensions>
  </wpt>
  <wpt lat="37.51638889" lon="-1.95472222">
    <name>AL163 La Fuensanta</name>
    <sym>Circle</sym>
    <extensions>
      <identifier />
      <category />
    </extensions>
  </wpt>
  <wpt lat="36.76333333" lon="-3.05833333">
    <name>AL164 La Fuente</name>
    <sym>Circle</sym>
    <extensions>
      <identifier />
      <category />
    </extensions>
  </wpt>
  <wpt lat="37.39472222" lon="-1.75000000">
    <name>AL165 La Fuente</name>
    <sym>Circle</sym>
    <extensions>
      <identifier />
      <category />
    </extensions>
  </wpt>
  <wpt lat="37.17138889" lon="-2.24111111">
    <name>AL166 La Fuente de la Higuera</name>
    <sym>Circle</sym>
    <extensions>
      <identifier />
      <category />
    </extensions>
  </wpt>
  <wpt lat="37.48750000" lon="-2.36638889">
    <name>AL167 La Fuente del Negro</name>
    <sym>Circle</sym>
    <extensions>
      <identifier />
      <category />
    </extensions>
  </wpt>
  <wpt lat="36.83111111" lon="-2.51361111">
    <name>AL168 La Garrofa</name>
    <sym>Circle</sym>
    <extensions>
      <identifier />
      <category />
    </extensions>
  </wpt>
  <wpt lat="37.04750000" lon="-2.15000000">
    <name>AL169 La Herradura</name>
    <sym>Circle</sym>
    <extensions>
      <identifier />
      <category />
    </extensions>
  </wpt>
  <wpt lat="37.47416667" lon="-2.08333333">
    <name>AL170 La Hoya</name>
    <sym>Circle</sym>
    <extensions>
      <identifier />
      <category />
    </extensions>
  </wpt>
  <wpt lat="37.11694444" lon="-2.73333333">
    <name>AL171 La Huelga</name>
    <sym>Circle</sym>
    <extensions>
      <identifier />
      <category />
    </extensions>
  </wpt>
  <wpt lat="36.82416667" lon="-2.04416667">
    <name>AL172 La Isleta</name>
    <sym>Circle</sym>
    <extensions>
      <identifier />
      <category />
    </extensions>
  </wpt>
  <wpt lat="37.01750000" lon="-1.92111111">
    <name>AL173 La Islica</name>
    <sym>Circle</sym>
    <extensions>
      <identifier />
      <category />
    </extensions>
  </wpt>
  <wpt lat="37.16555556" lon="-2.10888889">
    <name>AL174 La Mela</name>
    <sym>Circle</sym>
    <extensions>
      <identifier />
      <category />
    </extensions>
  </wpt>
  <wpt lat="36.75666667" lon="-2.68166667">
    <name>AL175 La Mojonera</name>
    <sym>Circle</sym>
    <extensions>
      <identifier />
      <category />
    </extensions>
  </wpt>
  <wpt lat="37.28833333" lon="-1.79250000">
    <name>AL176 La Muleria</name>
    <sym>Circle</sym>
    <extensions>
      <identifier />
      <category />
    </extensions>
  </wpt>
  <wpt lat="37.42250000" lon="-1.99583333">
    <name>AL177 La Parata</name>
    <sym>Circle</sym>
    <extensions>
      <identifier />
      <category />
    </extensions>
  </wpt>
  <wpt lat="36.78388889" lon="-3.06694444">
    <name>AL178 La Parra</name>
    <sym>Circle</sym>
    <extensions>
      <identifier />
      <category />
    </extensions>
  </wpt>
  <wpt lat="36.86638889" lon="-2.97166667">
    <name>AL179 La Peñarrodada</name>
    <sym>Circle</sym>
    <extensions>
      <identifier />
      <category />
    </extensions>
  </wpt>
  <wpt lat="37.43944444" lon="-2.73333333">
    <name>AL180 La Perulera</name>
    <sym>Circle</sym>
    <extensions>
      <identifier />
      <category />
    </extensions>
  </wpt>
  <wpt lat="37.29277778" lon="-1.86611111">
    <name>AL181 La Portilla</name>
    <sym>Circle</sym>
    <extensions>
      <identifier />
      <category />
    </extensions>
  </wpt>
  <wpt lat="37.26583333" lon="-2.04555556">
    <name>AL182 La Rambla Algibe</name>
    <sym>Circle</sym>
    <extensions>
      <identifier />
      <category />
    </extensions>
  </wpt>
  <wpt lat="37.03500000" lon="-2.17305556">
    <name>AL183 La Rambla Honda</name>
    <sym>Circle</sym>
    <extensions>
      <identifier />
      <category />
    </extensions>
  </wpt>
  <wpt lat="36.79916667" lon="-2.59250000">
    <name>AL184 La Ribera de la Algaida</name>
    <sym>Circle</sym>
    <extensions>
      <identifier />
      <category />
    </extensions>
  </wpt>
  <wpt lat="37.17722222" lon="-1.98805556">
    <name>AL185 La Serena</name>
    <sym>Circle</sym>
    <extensions>
      <identifier />
      <category />
    </extensions>
  </wpt>
  <wpt lat="37.54666667" lon="-2.22972222">
    <name>AL186 La Yegua Baja</name>
    <sym>Circle</sym>
    <extensions>
      <identifier />
      <category />
    </extensions>
  </wpt>
  <wpt lat="37.29861111" lon="-2.32777778">
    <name>AL187 Laroya</name>
    <sym>Circle</sym>
    <extensions>
      <identifier />
      <category />
    </extensions>
  </wpt>
  <wpt lat="37.09250000" lon="-2.58305556">
    <name>AL188 Las Alcubillas</name>
    <sym>Circle</sym>
    <extensions>
      <identifier />
      <category />
    </extensions>
  </wpt>
  <wpt lat="37.14916667" lon="-2.53694444">
    <name>AL189 Las Aneas</name>
    <sym>Circle</sym>
    <extensions>
      <identifier />
      <category />
    </extensions>
  </wpt>
  <wpt lat="37.54388889" lon="-2.86666667">
    <name>AL190 Las Cabreras</name>
    <sym>Circle</sym>
    <extensions>
      <identifier />
      <category />
    </extensions>
  </wpt>
  <wpt lat="37.28916667" lon="-2.62750000">
    <name>AL191 Las Carboneras</name>
    <sym>Circle</sym>
    <extensions>
      <identifier />
      <category />
    </extensions>
  </wpt>
  <wpt lat="37.63805556" lon="-2.17472222">
    <name>AL192 Las Casas</name>
    <sym>Circle</sym>
    <extensions>
      <identifier />
      <category />
    </extensions>
  </wpt>
  <wpt lat="37.89472222" lon="-2.21888889">
    <name>AL193 Las Covatillas</name>
    <sym>Circle</sym>
    <extensions>
      <identifier />
      <category />
    </extensions>
  </wpt>
  <wpt lat="36.89388889" lon="-2.27972222">
    <name>AL194 Las Cuevas de los Medinas</name>
    <sym>Circle</sym>
    <extensions>
      <identifier />
      <category />
    </extensions>
  </wpt>
  <wpt lat="36.92944444" lon="-2.29694444">
    <name>AL195 Las Cuevas de los Ubedas</name>
    <sym>Circle</sym>
    <extensions>
      <identifier />
      <category />
    </extensions>
  </wpt>
  <wpt lat="37.27416667" lon="-1.84000000">
    <name>AL196 Las Cunas</name>
    <sym>Circle</sym>
    <extensions>
      <identifier />
      <category />
    </extensions>
  </wpt>
  <wpt lat="37.30694444" lon="-1.87166667">
    <name>AL197 Las Cupillas</name>
    <sym>Circle</sym>
    <extensions>
      <identifier />
      <category />
    </extensions>
  </wpt>
  <wpt lat="37.10527778" lon="-2.02666667">
    <name>AL198 Las Herrerias</name>
    <sym>Circle</sym>
    <extensions>
      <identifier />
      <category />
    </extensions>
  </wpt>
  <wpt lat="37.27500000" lon="-1.77916667">
    <name>AL199 Las Herrerias</name>
    <sym>Circle</sym>
    <extensions>
      <identifier />
      <category />
    </extensions>
  </wpt>
  <wpt lat="37.30944444" lon="-2.09222222">
    <name>AL200 Las Huevanillas</name>
    <sym>Circle</sym>
    <extensions>
      <identifier />
      <category />
    </extensions>
  </wpt>
  <wpt lat="37.28972222" lon="-2.51500000">
    <name>AL201 Las Menas</name>
    <sym>Circle</sym>
    <extensions>
      <identifier />
      <category />
    </extensions>
  </wpt>
  <wpt lat="37.35416667" lon="-1.99388889">
    <name>AL202 Las Menas</name>
    <sym>Circle</sym>
    <extensions>
      <identifier />
      <category />
    </extensions>
  </wpt>
  <wpt lat="36.92805556" lon="-2.53750000">
    <name>AL203 Las Minas</name>
    <sym>Circle</sym>
    <extensions>
      <identifier />
      <category />
    </extensions>
  </wpt>
  <wpt lat="36.88166667" lon="-2.35000000">
    <name>AL204 Las Negras</name>
    <sym>Circle</sym>
    <extensions>
      <identifier />
      <category />
    </extensions>
  </wpt>
  <wpt lat="36.75972222" lon="-2.73944444">
    <name>AL205 Las Norias</name>
    <sym>Circle</sym>
    <extensions>
      <identifier />
      <category />
    </extensions>
  </wpt>
  <wpt lat="37.46222222" lon="-1.85666667">
    <name>AL206 Las Norias</name>
    <sym>Circle</sym>
    <extensions>
      <identifier />
      <category />
    </extensions>
  </wpt>
  <wpt lat="37.47000000" lon="-2.14916667">
    <name>AL207 Las Pocicas</name>
    <sym>Circle</sym>
    <extensions>
      <identifier />
      <category />
    </extensions>
  </wpt>
  <wpt lat="36.73722222" lon="-2.64027778">
    <name>AL208 Las Salinas</name>
    <sym>Circle</sym>
    <extensions>
      <identifier />
      <category />
    </extensions>
  </wpt>
  <wpt lat="36.99500000" lon="-2.89138889">
    <name>AL209 Laujar de Andarax</name>
    <sym>Circle</sym>
    <extensions>
      <identifier />
      <category />
    </extensions>
  </wpt>
  <wpt lat="37.29722222" lon="-2.21888889">
    <name>AL210 Lijar</name>
    <sym>Circle</sym>
    <extensions>
      <identifier />
      <category />
    </extensions>
  </wpt>
  <wpt lat="37.43416667" lon="-2.17444444">
    <name>AL211 Llano del Espino</name>
    <sym>Circle</sym>
    <extensions>
      <identifier />
      <category />
    </extensions>
  </wpt>
  <wpt lat="37.42805556" lon="-2.16277778">
    <name>AL212 Llanos de los Olleres</name>
    <sym>Circle</sym>
    <extensions>
      <identifier />
      <category />
    </extensions>
  </wpt>
  <wpt lat="36.76750000" lon="-2.76027778">
    <name>AL213 Loma del Bosque</name>
    <sym>Circle</sym>
    <extensions>
      <identifier />
      <category />
    </extensions>
  </wpt>
  <wpt lat="37.54388889" lon="-2.32694444">
    <name>AL214 Los Alamos</name>
    <sym>Circle</sym>
    <extensions>
      <identifier />
      <category />
    </extensions>
  </wpt>
  <wpt lat="36.85111111" lon="-2.12111111">
    <name>AL215 Los Albaricoques</name>
    <sym>Circle</sym>
    <extensions>
      <identifier />
      <category />
    </extensions>
  </wpt>
  <wpt lat="37.14694444" lon="-2.04555556">
    <name>AL216 Los Castaños</name>
    <sym>Circle</sym>
    <extensions>
      <identifier />
      <category />
    </extensions>
  </wpt>
  <wpt lat="37.53611111" lon="-2.20194444">
    <name>AL217 Los Cerricos</name>
    <sym>Circle</sym>
    <extensions>
      <identifier />
      <category />
    </extensions>
  </wpt>
  <wpt lat="37.46944444" lon="-2.20777778">
    <name>AL218 Los Chacones</name>
    <sym>Circle</sym>
    <extensions>
      <identifier />
      <category />
    </extensions>
  </wpt>
  <wpt lat="36.82361111" lon="-3.07333333">
    <name>AL219 Los Clementes</name>
    <sym>Circle</sym>
    <extensions>
      <identifier />
      <category />
    </extensions>
  </wpt>
  <wpt lat="36.76694444" lon="-3.11500000">
    <name>AL220 Los Escuderos</name>
    <sym>Circle</sym>
    <extensions>
      <identifier />
      <category />
    </extensions>
  </wpt>
  <wpt lat="36.81777778" lon="-2.05222222">
    <name>AL221 Los Escullos</name>
    <sym>Circle</sym>
    <extensions>
      <identifier />
      <category />
    </extensions>
  </wpt>
  <wpt lat="37.17166667" lon="-1.93944444">
    <name>AL222 Los Gallardos</name>
    <sym>Circle</sym>
    <extensions>
      <identifier />
      <category />
    </extensions>
  </wpt>
  <wpt lat="37.48555556" lon="-2.03194444">
    <name>AL223 Los Gateros</name>
    <sym>Circle</sym>
    <extensions>
      <identifier />
      <category />
    </extensions>
  </wpt>
  <wpt lat="37.55416667" lon="-1.95611111">
    <name>AL224 Los Gazquez</name>
    <sym>Circle</sym>
    <extensions>
      <identifier />
      <category />
    </extensions>
  </wpt>
  <wpt lat="37.13472222" lon="-2.13333333">
    <name>AL225 Los Giles</name>
    <sym>Circle</sym>
    <extensions>
      <identifier />
      <category />
    </extensions>
  </wpt>
  <wpt lat="37.17222222" lon="-2.04555556">
    <name>AL226 Los Javielos</name>
    <sym>Circle</sym>
    <extensions>
      <identifier />
      <category />
    </extensions>
  </wpt>
  <wpt lat="36.87361111" lon="-2.11833333">
    <name>AL227 Los Jimenez</name>
    <sym>Circle</sym>
    <extensions>
      <identifier />
      <category />
    </extensions>
  </wpt>
  <wpt lat="37.30944444" lon="-1.76444444">
    <name>AL228 Los Lobos</name>
    <sym>Circle</sym>
    <extensions>
      <identifier />
      <category />
    </extensions>
  </wpt>
  <wpt lat="36.87611111" lon="-2.10222222">
    <name>AL229 Los Martinez</name>
    <sym>Circle</sym>
    <extensions>
      <identifier />
      <category />
    </extensions>
  </wpt>
  <wpt lat="37.27500000" lon="-2.13111111">
    <name>AL230 Los Molinas</name>
    <sym>Circle</sym>
    <extensions>
      <identifier />
      <category />
    </extensions>
  </wpt>
  <wpt lat="36.78916667" lon="-3.10861111">
    <name>AL231 Los Moras</name>
    <sym>Circle</sym>
    <extensions>
      <identifier />
      <category />
    </extensions>
  </wpt>
  <wpt lat="36.88833333" lon="-2.18222222">
    <name>AL232 Los Nietos</name>
    <sym>Circle</sym>
    <extensions>
      <identifier />
      <category />
    </extensions>
  </wpt>
  <wpt lat="37.50333333" lon="-2.06000000">
    <name>AL233 Los Pardos</name>
    <sym>Circle</sym>
    <extensions>
      <identifier />
      <category />
    </extensions>
  </wpt>
  <wpt lat="37.09222222" lon="-2.05111111">
    <name>AL234 Los Perales</name>
    <sym>Circle</sym>
    <extensions>
      <identifier />
      <category />
    </extensions>
  </wpt>
  <wpt lat="36.80638889" lon="-3.07638889">
    <name>AL235 Los Perez</name>
    <sym>Circle</sym>
    <extensions>
      <identifier />
      <category />
    </extensions>
  </wpt>
  <wpt lat="37.26111111" lon="-2.60611111">
    <name>AL236 Los Santos</name>
    <sym>Circle</sym>
    <extensions>
      <identifier />
      <category />
    </extensions>
  </wpt>
  <wpt lat="37.59777778" lon="-2.04750000">
    <name>AL237 Los Tonosas</name>
    <sym>Circle</sym>
    <extensions>
      <identifier />
      <category />
    </extensions>
  </wpt>
  <wpt lat="37.28416667" lon="-2.13638889">
    <name>AL238 Los Utreras</name>
    <sym>Circle</sym>
    <extensions>
      <identifier />
      <category />
    </extensions>
  </wpt>
  <wpt lat="37.21777778" lon="-2.06583333">
    <name>AL239 Lubrin</name>
    <sym>Circle</sym>
    <extensions>
      <identifier />
      <category />
    </extensions>
  </wpt>
  <wpt lat="36.94444444" lon="-3.02333333">
    <name>AL240 Lucainena</name>
    <sym>Circle</sym>
    <extensions>
      <identifier />
      <category />
    </extensions>
  </wpt>
  <wpt lat="37.04361111" lon="-2.20027778">
    <name>AL241 Lucainena de las Torres</name>
    <sym>Circle</sym>
    <extensions>
      <identifier />
      <category />
    </extensions>
  </wpt>
  <wpt lat="37.40194444" lon="-2.42277778">
    <name>AL242 Lucar</name>
    <sym>Circle</sym>
    <extensions>
      <identifier />
      <category />
    </extensions>
  </wpt>
  <wpt lat="37.33555556" lon="-2.30166667">
    <name>AL243 Macael</name>
    <sym>Circle</sym>
    <extensions>
      <identifier />
      <category />
    </extensions>
  </wpt>
  <wpt lat="37.71083333" lon="-2.16472222">
    <name>AL244 Maria</name>
    <sym>Circle</sym>
    <extensions>
      <identifier />
      <category />
    </extensions>
  </wpt>
  <wpt lat="36.94000000" lon="-2.44861111">
    <name>AL245 Marraque</name>
    <sym>Circle</sym>
    <extensions>
      <identifier />
      <category />
    </extensions>
  </wpt>
  <wpt lat="36.71833333" lon="-2.84194444">
    <name>AL246 Matagorda</name>
    <sym>Circle</sym>
    <extensions>
      <identifier />
      <category />
    </extensions>
  </wpt>
  <wpt lat="37.14138889" lon="-1.84972222">
    <name>AL247 Mojacar</name>
    <sym>Circle</sym>
    <extensions>
      <identifier />
      <category />
    </extensions>
  </wpt>
  <wpt lat="36.73666667" lon="-2.14972222">
    <name>AL248 Monsul</name>
    <sym>Circle</sym>
    <extensions>
      <identifier />
      <category />
    </extensions>
  </wpt>
  <wpt lat="37.10833333" lon="-2.64944444">
    <name>AL249 Nacimiento</name>
    <sym>Circle</sym>
    <extensions>
      <identifier />
      <category />
    </extensions>
  </wpt>
  <wpt lat="36.96777778" lon="-2.20527778">
    <name>AL250 Nijar</name>
    <sym>Circle</sym>
    <extensions>
      <identifier />
      <category />
    </extensions>
  </wpt>
  <wpt lat="37.13027778" lon="-2.72777778">
    <name>AL251 Ocaña</name>
    <sym>Circle</sym>
    <extensions>
      <identifier />
      <category />
    </extensions>
  </wpt>
  <wpt lat="37.04055556" lon="-2.74472222">
    <name>AL252 Ohanes</name>
    <sym>Circle</sym>
    <extensions>
      <identifier />
      <category />
    </extensions>
  </wpt>
  <wpt lat="37.17500000" lon="-2.47611111">
    <name>AL253 Olula de Castro</name>
    <sym>Circle</sym>
    <extensions>
      <identifier />
      <category />
    </extensions>
  </wpt>
  <wpt lat="37.35944444" lon="-2.29805556">
    <name>AL254 Olula del Rio</name>
    <sym>Circle</sym>
    <extensions>
      <identifier />
      <category />
    </extensions>
  </wpt>
  <wpt lat="37.48527778" lon="-2.28472222">
    <name>AL255 Oria</name>
    <sym>Circle</sym>
    <extensions>
      <identifier />
      <category />
    </extensions>
  </wpt>
  <wpt lat="36.99944444" lon="-2.77222222">
    <name>AL256 Padules</name>
    <sym>Circle</sym>
    <extensions>
      <identifier />
      <category />
    </extensions>
  </wpt>
  <wpt lat="37.24666667" lon="-1.79527778">
    <name>AL257 Palomares</name>
    <sym>Circle</sym>
    <extensions>
      <identifier />
      <category />
    </extensions>
  </wpt>
  <wpt lat="36.78722222" lon="-2.83305556">
    <name>AL258 Pampanico</name>
    <sym>Circle</sym>
    <extensions>
      <identifier />
      <category />
    </extensions>
  </wpt>
  <wpt lat="37.40777778" lon="-2.22777778">
    <name>AL259 Partaloa</name>
    <sym>Circle</sym>
    <extensions>
      <identifier />
      <category />
    </extensions>
  </wpt>
  <wpt lat="37.02388889" lon="-2.95250000">
    <name>AL260 Paterna del Rio</name>
    <sym>Circle</sym>
    <extensions>
      <identifier />
      <category />
    </extensions>
  </wpt>
  <wpt lat="36.96138889" lon="-2.48972222">
    <name>AL261 Paulenca</name>
    <sym>Circle</sym>
    <extensions>
      <identifier />
      <category />
    </extensions>
  </wpt>
  <wpt lat="36.91750000" lon="-2.44361111">
    <name>AL262 Pechina</name>
    <sym>Circle</sym>
    <extensions>
      <identifier />
      <category />
    </extensions>
  </wpt>
  <wpt lat="37.39583333" lon="-2.60972222">
    <name>AL263 Pilacon</name>
    <sym>Circle</sym>
    <extensions>
      <identifier />
      <category />
    </extensions>
  </wpt>
  <wpt lat="37.39305556" lon="-1.69111111">
    <name>AL264 Pilar de Jaravia</name>
    <sym>Circle</sym>
    <extensions>
      <identifier />
      <category />
    </extensions>
  </wpt>
  <wpt lat="37.02777778" lon="-2.07944444">
    <name>AL265 Polopos</name>
    <sym>Circle</sym>
    <extensions>
      <identifier />
      <category />
    </extensions>
  </wpt>
  <wpt lat="37.44388889" lon="-1.73694444">
    <name>AL266 Pozo de la Higuera</name>
    <sym>Circle</sym>
    <extensions>
      <identifier />
      <category />
    </extensions>
  </wpt>
  <wpt lat="36.79972222" lon="-2.65388889">
    <name>AL267 Puebla de Vicar</name>
    <sym>Circle</sym>
    <extensions>
      <identifier />
      <category />
    </extensions>
  </wpt>
  <wpt lat="36.91194444" lon="-2.13250000">
    <name>AL268 Pueblo Blanco</name>
    <sym>Circle</sym>
    <extensions>
      <identifier />
      <category />
    </extensions>
  </wpt>
  <wpt lat="37.20472222" lon="-1.81333333">
    <name>AL269 Puerto del Rey</name>
    <sym>Circle</sym>
    <extensions>
      <identifier />
      <category />
    </extensions>
  </wpt>
  <wpt lat="37.41333333" lon="-1.74500000">
    <name>AL270 Pulpi</name>
    <sym>Circle</sym>
    <extensions>
      <identifier />
      <category />
    </extensions>
  </wpt>
  <wpt lat="37.35055556" lon="-2.36138889">
    <name>AL271 Purchena</name>
    <sym>Circle</sym>
    <extensions>
      <identifier />
      <category />
    </extensions>
  </wpt>
  <wpt lat="36.99833333" lon="-2.68277778">
    <name>AL272 Ragol</name>
    <sym>Circle</sym>
    <extensions>
      <identifier />
      <category />
    </extensions>
  </wpt>
  <wpt lat="36.81472222" lon="-2.23694444">
    <name>AL273 Rambla de Morales</name>
    <sym>Circle</sym>
    <extensions>
      <identifier />
      <category />
    </extensions>
  </wpt>
  <wpt lat="36.94750000" lon="-2.46416667">
    <name>AL274 Rioja</name>
    <sym>Circle</sym>
    <extensions>
      <identifier />
      <category />
    </extensions>
  </wpt>
  <wpt lat="36.84916667" lon="-2.04166667">
    <name>AL275 Rodalquilar</name>
    <sym>Circle</sym>
    <extensions>
      <identifier />
      <category />
    </extensions>
  </wpt>
  <wpt lat="36.76583333" lon="-2.61638889">
    <name>AL276 Roquetas de Mar</name>
    <sym>Circle</sym>
    <extensions>
      <identifier />
      <category />
    </extensions>
  </wpt>
  <wpt lat="36.96444444" lon="-2.09611111">
    <name>AL277 Saladar Y Leche</name>
    <sym>Circle</sym>
    <extensions>
      <identifier />
      <category />
    </extensions>
  </wpt>
  <wpt lat="36.71722222" lon="-2.68916667">
    <name>AL278 San Agustin</name>
    <sym>Circle</sym>
    <extensions>
      <identifier />
      <category />
    </extensions>
  </wpt>
  <wpt lat="37.42444444" lon="-1.88083333">
    <name>AL279 San Francisco</name>
    <sym>Circle</sym>
    <extensions>
      <identifier />
      <category />
    </extensions>
  </wpt>
  <wpt lat="36.90777778" lon="-2.17472222">
    <name>AL280 San Isidro de Nijar</name>
    <sym>Circle</sym>
    <extensions>
      <identifier />
      <category />
    </extensions>
  </wpt>
  <wpt lat="36.76694444" lon="-2.11027778">
    <name>AL281 San Jose</name>
    <sym>Circle</sym>
    <extensions>
      <identifier />
      <category />
    </extensions>
  </wpt>
  <wpt lat="37.36083333" lon="-1.65444444">
    <name>AL282 San Juan de los Terreros</name>
    <sym>Circle</sym>
    <extensions>
      <identifier />
      <category />
    </extensions>
  </wpt>
  <wpt lat="36.84055556" lon="-2.96833333">
    <name>AL283 San Roque</name>
    <sym>Circle</sym>
    <extensions>
      <identifier />
      <category />
    </extensions>
  </wpt>
  <wpt lat="37.35444444" lon="-1.96111111">
    <name>AL284 Santa Barbara</name>
    <sym>Circle</sym>
    <extensions>
      <identifier />
      <category />
    </extensions>
  </wpt>
  <wpt lat="37.01944444" lon="-2.59944444">
    <name>AL285 Santa Cruz de Marchena</name>
    <sym>Circle</sym>
    <extensions>
      <identifier />
      <category />
    </extensions>
  </wpt>
  <wpt lat="36.97583333" lon="-2.53222222">
    <name>AL286 Santa Fe de Mondujar</name>
    <sym>Circle</sym>
    <extensions>
      <identifier />
      <category />
    </extensions>
  </wpt>
  <wpt lat="37.46888889" lon="-1.98638889">
    <name>AL287 Santa Maria de Nieva</name>
    <sym>Circle</sym>
    <extensions>
      <identifier />
      <category />
    </extensions>
  </wpt>
  <wpt lat="36.78138889" lon="-2.77694444">
    <name>AL288 Santa Maria del Aguila</name>
    <sym>Circle</sym>
    <extensions>
      <identifier />
      <category />
    </extensions>
  </wpt>
  <wpt lat="37.09972222" lon="-2.72472222">
    <name>AL289 Santillana</name>
    <sym>Circle</sym>
    <extensions>
      <identifier />
      <category />
    </extensions>
  </wpt>
  <wpt lat="37.45777778" lon="-2.03888889">
    <name>AL290 Santopetar</name>
    <sym>Circle</sym>
    <extensions>
      <identifier />
      <category />
    </extensions>
  </wpt>
  <wpt lat="37.20611111" lon="-2.34694444">
    <name>AL291 Senes</name>
    <sym>Circle</sym>
    <extensions>
      <identifier />
      <category />
    </extensions>
  </wpt>
  <wpt lat="37.34722222" lon="-2.51000000">
    <name>AL292 Seron</name>
    <sym>Circle</sym>
    <extensions>
      <identifier />
      <category />
    </extensions>
  </wpt>
  <wpt lat="37.32277778" lon="-2.39666667">
    <name>AL293 Sierro</name>
    <sym>Circle</sym>
    <extensions>
      <identifier />
      <category />
    </extensions>
  </wpt>
  <wpt lat="37.39388889" lon="-2.38833333">
    <name>AL294 Somontin</name>
    <sym>Circle</sym>
    <extensions>
      <identifier />
      <category />
    </extensions>
  </wpt>
  <wpt lat="37.09944444" lon="-2.12277778">
    <name>AL295 Sorbas</name>
    <sym>Circle</sym>
    <extensions>
      <identifier />
      <category />
    </extensions>
  </wpt>
  <wpt lat="37.34222222" lon="-2.39138889">
    <name>AL296 Sufli</name>
    <sym>Circle</sym>
    <extensions>
      <identifier />
      <category />
    </extensions>
  </wpt>
  <wpt lat="37.05361111" lon="-2.39000000">
    <name>AL297 Tabernas</name>
    <sym>Circle</sym>
    <extensions>
      <identifier />
      <category />
    </extensions>
  </wpt>
  <wpt lat="37.46944444" lon="-2.07694444">
    <name>AL298 Taberno</name>
    <sym>Circle</sym>
    <extensions>
      <identifier />
      <category />
    </extensions>
  </wpt>
  <wpt lat="37.22944444" lon="-2.28444444">
    <name>AL299 Tahal</name>
    <sym>Circle</sym>
    <extensions>
      <identifier />
      <category />
    </extensions>
  </wpt>
  <wpt lat="36.76666667" lon="-2.86277778">
    <name>AL300 Tarambana</name>
    <sym>Circle</sym>
    <extensions>
      <identifier />
      <category />
    </extensions>
  </wpt>
  <wpt lat="36.98944444" lon="-2.59722222">
    <name>AL301 Terque</name>
    <sym>Circle</sym>
    <extensions>
      <identifier />
      <category />
    </extensions>
  </wpt>
  <wpt lat="37.06944444" lon="-2.73777778">
    <name>AL302 Tices</name>
    <sym>Circle</sym>
    <extensions>
      <identifier />
      <category />
    </extensions>
  </wpt>
  <wpt lat="37.34777778" lon="-2.43666667">
    <name>AL303 Tijola</name>
    <sym>Circle</sym>
    <extensions>
      <identifier />
      <category />
    </extensions>
  </wpt>
  <wpt lat="37.86277778" lon="-2.23000000">
    <name>AL304 Toperas</name>
    <sym>Circle</sym>
    <extensions>
      <identifier />
      <category />
    </extensions>
  </wpt>
  <wpt lat="37.15500000" lon="-1.89388889">
    <name>AL305 Turre</name>
    <sym>Circle</sym>
    <extensions>
      <identifier />
      <category />
    </extensions>
  </wpt>
  <wpt lat="37.03166667" lon="-2.26277778">
    <name>AL306 Turrillas</name>
    <sym>Circle</sym>
    <extensions>
      <identifier />
      <category />
    </extensions>
  </wpt>
  <wpt lat="37.46972222" lon="-1.91805556">
    <name>AL307 Urcal</name>
    <sym>Circle</sym>
    <extensions>
      <identifier />
      <category />
    </extensions>
  </wpt>
  <wpt lat="37.39750000" lon="-2.36416667">
    <name>AL308 Urracal</name>
    <sym>Circle</sym>
    <extensions>
      <identifier />
      <category />
    </extensions>
  </wpt>
  <wpt lat="37.19416667" lon="-2.40222222">
    <name>AL309 Velefique</name>
    <sym>Circle</sym>
    <extensions>
      <identifier />
      <category />
    </extensions>
  </wpt>
  <wpt lat="37.69194444" lon="-2.09555556">
    <name>AL310 Velez Blanco</name>
    <sym>Circle</sym>
    <extensions>
      <identifier />
      <category />
    </extensions>
  </wpt>
  <wpt lat="37.64944444" lon="-2.07194444">
    <name>AL311 Velez Rubio</name>
    <sym>Circle</sym>
    <extensions>
      <identifier />
      <category />
    </extensions>
  </wpt>
  <wpt lat="37.08638889" lon="-2.29138889">
    <name>AL312 Venta de los Yesos</name>
    <sym>Circle</sym>
    <extensions>
      <identifier />
      <category />
    </extensions>
  </wpt>
  <wpt lat="36.99416667" lon="-2.07555556">
    <name>AL313 Venta del Pobre</name>
    <sym>Circle</sym>
    <extensions>
      <identifier />
      <category />
    </extensions>
  </wpt>
  <wpt lat="36.79750000" lon="-2.69833333">
    <name>AL314 Venta del Viso</name>
    <sym>Circle</sym>
    <extensions>
      <identifier />
      <category />
    </extensions>
  </wpt>
  <wpt lat="36.86972222" lon="-2.38583333">
    <name>AL315 Venta Gaspar</name>
    <sym>Circle</sym>
    <extensions>
      <identifier />
      <category />
    </extensions>
  </wpt>
  <wpt lat="37.24861111" lon="-1.87000000">
    <name>AL316 Vera</name>
    <sym>Circle</sym>
    <extensions>
      <identifier />
      <category />
    </extensions>
  </wpt>
  <wpt lat="36.88972222" lon="-2.42611111">
    <name>AL317 Viator</name>
    <sym>Circle</sym>
    <extensions>
      <identifier />
      <category />
    </extensions>
  </wpt>
  <wpt lat="36.83555556" lon="-2.64277778">
    <name>AL318 Vicar</name>
    <sym>Circle</sym>
    <extensions>
      <identifier />
      <category />
    </extensions>
  </wpt>
  <wpt lat="37.25472222" lon="-1.77000000">
    <name>AL319 Villaricos</name>
    <sym>Circle</sym>
    <extensions>
      <identifier />
      <category />
    </extensions>
  </wpt>
  <wpt lat="37.34361111" lon="-2.03972222">
    <name>AL320 Zurgena</name>
    <sym>Circle</sym>
    <extensions>
      <identifier />
      <category />
    </extensions>
  </wpt>
  <wpt lat="36.46527778" lon="-5.72194444">
    <name>CA001 Alcalá de los Gazules</name>
    <sym>Circle</sym>
    <extensions>
      <identifier />
      <category />
    </extensions>
  </wpt>
  <wpt lat="36.90777778" lon="-5.17333333">
    <name>CA002 Alcalá del Valle</name>
    <sym>Circle</sym>
    <extensions>
      <identifier />
      <category />
    </extensions>
  </wpt>
  <wpt lat="36.65805556" lon="-5.65527778">
    <name>CA003 Algar</name>
    <sym>Circle</sym>
    <extensions>
      <identifier />
      <category />
    </extensions>
  </wpt>
  <wpt lat="36.13861111" lon="-5.45027778">
    <name>CA004 Algeciras</name>
    <sym>Circle</sym>
    <extensions>
      <identifier />
      <category />
    </extensions>
  </wpt>
  <wpt lat="36.88250000" lon="-5.40527778">
    <name>CA005 Algodonales</name>
    <sym>Circle</sym>
    <extensions>
      <identifier />
      <category />
    </extensions>
  </wpt>
  <wpt lat="36.75250000" lon="-5.80972222">
    <name>CA006 Arcos de la Frontera</name>
    <sym>Circle</sym>
    <extensions>
      <identifier />
      <category />
    </extensions>
  </wpt>
  <wpt lat="36.19611111" lon="-5.71638889">
    <name>CA007 Aziscar</name>
    <sym>Circle</sym>
    <extensions>
      <identifier />
      <category />
    </extensions>
  </wpt>
  <wpt lat="36.19388889" lon="-5.91944444">
    <name>CA008 Barbate</name>
    <sym>Circle</sym>
    <extensions>
      <identifier />
      <category />
    </extensions>
  </wpt>
  <wpt lat="36.25222222" lon="-5.88277778">
    <name>CA009 Barelo</name>
    <sym>Circle</sym>
    <extensions>
      <identifier />
      <category />
    </extensions>
  </wpt>
  <wpt lat="36.34027778" lon="-6.07305556">
    <name>CA010 Barrio Nuevo</name>
    <sym>Circle</sym>
    <extensions>
      <identifier />
      <category />
    </extensions>
  </wpt>
  <wpt lat="36.34638889" lon="-5.80888889">
    <name>CA011 Benalup</name>
    <sym>Circle</sym>
    <extensions>
      <identifier />
      <category />
    </extensions>
  </wpt>
  <wpt lat="36.76833333" lon="-5.46472222">
    <name>CA012 Benamahoma</name>
    <sym>Circle</sym>
    <extensions>
      <identifier />
      <category />
    </extensions>
  </wpt>
  <wpt lat="36.70694444" lon="-5.42000000">
    <name>CA013 Benaocaz</name>
    <sym>Circle</sym>
    <extensions>
      <identifier />
      <category />
    </extensions>
  </wpt>
  <wpt lat="36.80305556" lon="-6.33611111">
    <name>CA014 Bonanza</name>
    <sym>Circle</sym>
    <extensions>
      <identifier />
      <category />
    </extensions>
  </wpt>
  <wpt lat="36.82194444" lon="-5.74222222">
    <name>CA015 Bornos</name>
    <sym>Circle</sym>
    <extensions>
      <identifier />
      <category />
    </extensions>
  </wpt>
  <wpt lat="36.52305556" lon="-6.28250000">
    <name>CA016 Cádiz</name>
    <sym>Circle</sym>
    <extensions>
      <identifier />
      <category />
    </extensions>
  </wpt>
  <wpt lat="36.36055556" lon="-6.13305556">
    <name>CA017 Campano</name>
    <sym>Circle</sym>
    <extensions>
      <identifier />
      <category />
    </extensions>
  </wpt>
  <wpt lat="36.32388889" lon="-5.87777778">
    <name>CA018 Cantarranas</name>
    <sym>Circle</sym>
    <extensions>
      <identifier />
      <category />
    </extensions>
  </wpt>
  <wpt lat="36.29722222" lon="-6.07055556">
    <name>CA019 Casa de Postas</name>
    <sym>Circle</sym>
    <extensions>
      <identifier />
      <category />
    </extensions>
  </wpt>
  <wpt lat="36.92083333" lon="-5.79944444">
    <name>CA020 Caserío de San Bernardino</name>
    <sym>Circle</sym>
    <extensions>
      <identifier />
      <category />
    </extensions>
  </wpt>
  <wpt lat="36.28805556" lon="-5.41555556">
    <name>CA021 Castellar de la Frontera</name>
    <sym>Circle</sym>
    <extensions>
      <identifier />
      <category />
    </extensions>
  </wpt>
  <wpt lat="36.32694444" lon="-5.45111111">
    <name>CA022 Castillo de Castellar</name>
    <sym>Circle</sym>
    <extensions>
      <identifier />
      <category />
    </extensions>
  </wpt>
  <wpt lat="36.42250000" lon="-6.14666667">
    <name>CA023 Chiclana</name>
    <sym>Circle</sym>
    <extensions>
      <identifier />
      <category />
    </extensions>
  </wpt>
  <wpt lat="36.73555556" lon="-6.42916667">
    <name>CA024 Chipiona</name>
    <sym>Circle</sym>
    <extensions>
      <identifier />
      <category />
    </extensions>
  </wpt>
  <wpt lat="36.27805556" lon="-6.08611111">
    <name>CA025 Conil de la Frontera</name>
    <sym>Circle</sym>
    <extensions>
      <identifier />
      <category />
    </extensions>
  </wpt>
  <wpt lat="36.84750000" lon="-6.11777778">
    <name>CA026 Cortijo Cápita</name>
    <sym>Circle</sym>
    <extensions>
      <identifier />
      <category />
    </extensions>
  </wpt>
  <wpt lat="36.24388889" lon="-5.37555556">
    <name>CA027 Cortijo de Albalate</name>
    <sym>Circle</sym>
    <extensions>
      <identifier />
      <category />
    </extensions>
  </wpt>
  <wpt lat="36.73583333" lon="-6.28944444">
    <name>CA028 Cortijo de Alíjar</name>
    <sym>Circle</sym>
    <extensions>
      <identifier />
      <category />
    </extensions>
  </wpt>
  <wpt lat="36.97138889" lon="-5.65472222">
    <name>CA029 Cortijo de la Chirigota</name>
    <sym>Circle</sym>
    <extensions>
      <identifier />
      <category />
    </extensions>
  </wpt>
  <wpt lat="36.94111111" lon="-5.62138889">
    <name>CA030 Cortijo de los Pozuelos</name>
    <sym>Circle</sym>
    <extensions>
      <identifier />
      <category />
    </extensions>
  </wpt>
  <wpt lat="36.89055556" lon="-5.70722222">
    <name>CA031 Cortijo de Puertollano</name>
    <sym>Circle</sym>
    <extensions>
      <identifier />
      <category />
    </extensions>
  </wpt>
  <wpt lat="36.85388889" lon="-5.55944444">
    <name>CA032 Cortijo de Tierras Nuevas</name>
    <sym>Circle</sym>
    <extensions>
      <identifier />
      <category />
    </extensions>
  </wpt>
  <wpt lat="36.64194444" lon="-5.51555556">
    <name>CA033 Cortijo la Alcaria</name>
    <sym>Circle</sym>
    <extensions>
      <identifier />
      <category />
    </extensions>
  </wpt>
  <wpt lat="36.41916667" lon="-5.78472222">
    <name>CA034 Cortijo las Cobatillas</name>
    <sym>Circle</sym>
    <extensions>
      <identifier />
      <category />
    </extensions>
  </wpt>
  <wpt lat="36.61416667" lon="-6.16444444">
    <name>CA035 Doña Blanca</name>
    <sym>Circle</sym>
    <extensions>
      <identifier />
      <category />
    </extensions>
  </wpt>
  <wpt lat="36.16583333" lon="-5.76638889">
    <name>CA036 El Acebuchal</name>
    <sym>Circle</sym>
    <extensions>
      <identifier />
      <category />
    </extensions>
  </wpt>
  <wpt lat="36.14638889" lon="-5.80500000">
    <name>CA037 El Almarchal</name>
    <sym>Circle</sym>
    <extensions>
      <identifier />
      <category />
    </extensions>
  </wpt>
  <wpt lat="36.45333333" lon="-6.04416667">
    <name>CA038 El Berrueco</name>
    <sym>Circle</sym>
    <extensions>
      <identifier />
      <category />
    </extensions>
  </wpt>
  <wpt lat="36.76222222" lon="-5.50361111">
    <name>CA039 El Bosque</name>
    <sym>Circle</sym>
    <extensions>
      <identifier />
      <category />
    </extensions>
  </wpt>
  <wpt lat="36.34277778" lon="-6.09250000">
    <name>CA040 El Colorado</name>
    <sym>Circle</sym>
    <extensions>
      <identifier />
      <category />
    </extensions>
  </wpt>
  <wpt lat="36.85722222" lon="-5.32333333">
    <name>CA041 El Gastor</name>
    <sym>Circle</sym>
    <extensions>
      <identifier />
      <category />
    </extensions>
  </wpt>
  <wpt lat="36.34916667" lon="-5.63055556">
    <name>CA042 El Jautor</name>
    <sym>Circle</sym>
    <extensions>
      <identifier />
      <category />
    </extensions>
  </wpt>
  <wpt lat="36.09000000" lon="-5.76361111">
    <name>CA043 El Lentiscar</name>
    <sym>Circle</sym>
    <extensions>
      <identifier />
      <category />
    </extensions>
  </wpt>
  <wpt lat="36.91416667" lon="-5.73694444">
    <name>CA044 El Morisco</name>
    <sym>Circle</sym>
    <extensions>
      <identifier />
      <category />
    </extensions>
  </wpt>
  <wpt lat="36.22777778" lon="-6.06250000">
    <name>CA045 El Palmar</name>
    <sym>Circle</sym>
    <extensions>
      <identifier />
      <category />
    </extensions>
  </wpt>
  <wpt lat="36.30388889" lon="-5.97861111">
    <name>CA046 El Parralejo</name>
    <sym>Circle</sym>
    <extensions>
      <identifier />
      <category />
    </extensions>
  </wpt>
  <wpt lat="36.09888889" lon="-5.46527778">
    <name>CA047 El Pelayo</name>
    <sym>Circle</sym>
    <extensions>
      <identifier />
      <category />
    </extensions>
  </wpt>
  <wpt lat="36.64055556" lon="-6.13361111">
    <name>CA048 El Portal</name>
    <sym>Circle</sym>
    <extensions>
      <identifier />
      <category />
    </extensions>
  </wpt>
  <wpt lat="36.60277778" lon="-6.22638889">
    <name>CA049 El Puerto de Santa María</name>
    <sym>Circle</sym>
    <extensions>
      <identifier />
      <category />
    </extensions>
  </wpt>
  <wpt lat="36.15055556" lon="-5.47138889">
    <name>CA050 El Rinconcillo</name>
    <sym>Circle</sym>
    <extensions>
      <identifier />
      <category />
    </extensions>
  </wpt>
  <wpt lat="36.87361111" lon="-5.80583333">
    <name>CA051 Espera</name>
    <sym>Circle</sym>
    <extensions>
      <identifier />
      <category />
    </extensions>
  </wpt>
  <wpt lat="36.14500000" lon="-5.70055556">
    <name>CA052 Facinas</name>
    <sym>Circle</sym>
    <extensions>
      <identifier />
      <category />
    </extensions>
  </wpt>
  <wpt lat="36.83750000" lon="-5.91583333">
    <name>CA053 Gibalgín</name>
    <sym>Circle</sym>
    <extensions>
      <identifier />
      <category />
    </extensions>
  </wpt>
  <wpt lat="36.76222222" lon="-5.36916667">
    <name>CA054 Grazalema</name>
    <sym>Circle</sym>
    <extensions>
      <identifier />
      <category />
    </extensions>
  </wpt>
  <wpt lat="36.71250000" lon="-6.08611111">
    <name>CA055 Guadalcacín</name>
    <sym>Circle</sym>
    <extensions>
      <identifier />
      <category />
    </extensions>
  </wpt>
  <wpt lat="36.18666667" lon="-5.41055556">
    <name>CA056 Guadarranque</name>
    <sym>Circle</sym>
    <extensions>
      <identifier />
      <category />
    </extensions>
  </wpt>
  <wpt lat="36.30194444" lon="-5.30750000">
    <name>CA057 Guadiaro</name>
    <sym>Circle</sym>
    <extensions>
      <identifier />
      <category />
    </extensions>
  </wpt>
  <wpt lat="36.27305556" lon="-5.89277778">
    <name>CA058 Jandilla</name>
    <sym>Circle</sym>
    <extensions>
      <identifier />
      <category />
    </extensions>
  </wpt>
  <wpt lat="36.51277778" lon="-6.14277778">
    <name>CA059 Jarana</name>
    <sym>Circle</sym>
    <extensions>
      <identifier />
      <category />
    </extensions>
  </wpt>
  <wpt lat="36.72777778" lon="-5.93305556">
    <name>CA060 Jédula</name>
    <sym>Circle</sym>
    <extensions>
      <identifier />
      <category />
    </extensions>
  </wpt>
  <wpt lat="36.69277778" lon="-6.13416667">
    <name>CA061 Jerez de la Frontera</name>
    <sym>Circle</sym>
    <extensions>
      <identifier />
      <category />
    </extensions>
  </wpt>
  <wpt lat="36.43777778" lon="-5.45305556">
    <name>CA062 Jimena de la Frontera</name>
    <sym>Circle</sym>
    <extensions>
      <identifier />
      <category />
    </extensions>
  </wpt>
  <wpt lat="36.91916667" lon="-5.42583333">
    <name>CA063 Juncales</name>
    <sym>Circle</sym>
    <extensions>
      <identifier />
      <category />
    </extensions>
  </wpt>
  <wpt lat="36.70250000" lon="-5.86250000">
    <name>CA064 Junta de los Ríos</name>
    <sym>Circle</sym>
    <extensions>
      <identifier />
      <category />
    </extensions>
  </wpt>
  <wpt lat="36.82250000" lon="-6.33055556">
    <name>CA065 La Algaida</name>
    <sym>Circle</sym>
    <extensions>
      <identifier />
      <category />
    </extensions>
  </wpt>
  <wpt lat="36.28111111" lon="-5.43000000">
    <name>CA066 La Almoraina</name>
    <sym>Circle</sym>
    <extensions>
      <identifier />
      <category />
    </extensions>
  </wpt>
  <wpt lat="36.37500000" lon="-6.17527778">
    <name>CA067 La Barrosa</name>
    <sym>Circle</sym>
    <extensions>
      <identifier />
      <category />
    </extensions>
  </wpt>
  <wpt lat="36.22138889" lon="-5.42916667">
    <name>CA068 La Estación</name>
    <sym>Circle</sym>
    <extensions>
      <identifier />
      <category />
    </extensions>
  </wpt>
  <wpt lat="36.76111111" lon="-6.39861111">
    <name>CA069 La Jara</name>
    <sym>Circle</sym>
    <extensions>
      <identifier />
      <category />
    </extensions>
  </wpt>
  <wpt lat="36.60027778" lon="-5.57805556">
    <name>CA070 La Jarda</name>
    <sym>Circle</sym>
    <extensions>
      <identifier />
      <category />
    </extensions>
  </wpt>
  <wpt lat="36.17250000" lon="-5.34666667">
    <name>CA071 La Línea de la Concepción</name>
    <sym>Circle</sym>
    <extensions>
      <identifier />
      <category />
    </extensions>
  </wpt>
  <wpt lat="36.62555556" lon="-6.30916667">
    <name>CA072 La Mata</name>
    <sym>Circle</sym>
    <extensions>
      <identifier />
      <category />
    </extensions>
  </wpt>
  <wpt lat="36.93166667" lon="-5.41194444">
    <name>CA073 La Muela</name>
    <sym>Circle</sym>
    <extensions>
      <identifier />
      <category />
    </extensions>
  </wpt>
  <wpt lat="36.27194444" lon="-5.99027778">
    <name>CA074 La Muela de Vejer</name>
    <sym>Circle</sym>
    <extensions>
      <identifier />
      <category />
    </extensions>
  </wpt>
  <wpt lat="36.75083333" lon="-6.06666667">
    <name>CA075 La Parra</name>
    <sym>Circle</sym>
    <extensions>
      <identifier />
      <category />
    </extensions>
  </wpt>
  <wpt lat="36.17055556" lon="-5.81611111">
    <name>CA076 La Zarzuela</name>
    <sym>Circle</sym>
    <extensions>
      <identifier />
      <category />
    </extensions>
  </wpt>
  <wpt lat="36.30805556" lon="-5.88111111">
    <name>CA077 Las Lomas</name>
    <sym>Circle</sym>
    <extensions>
      <identifier />
      <category />
    </extensions>
  </wpt>
  <wpt lat="36.28166667" lon="-5.93027778">
    <name>CA078 Libreros</name>
    <sym>Circle</sym>
    <extensions>
      <identifier />
      <category />
    </extensions>
  </wpt>
  <wpt lat="36.42111111" lon="-5.43527778">
    <name>CA079 Los Ángeles</name>
    <sym>Circle</sym>
    <extensions>
      <identifier />
      <category />
    </extensions>
  </wpt>
  <wpt lat="36.37611111" lon="-5.87611111">
    <name>CA080 Los Baladejos</name>
    <sym>Circle</sym>
    <extensions>
      <identifier />
      <category />
    </extensions>
  </wpt>
  <wpt lat="36.18722222" lon="-5.49277778">
    <name>CA081 Los Barrios</name>
    <sym>Circle</sym>
    <extensions>
      <identifier />
      <category />
    </extensions>
  </wpt>
  <wpt lat="36.18638889" lon="-6.35000000">
    <name>CA082 Los Caños de Meca</name>
    <sym>Circle</sym>
    <extensions>
      <identifier />
      <category />
    </extensions>
  </wpt>
  <wpt lat="36.36250000" lon="-5.97500000">
    <name>CA083 Los Naveros</name>
    <sym>Circle</sym>
    <extensions>
      <identifier />
      <category />
    </extensions>
  </wpt>
  <wpt lat="36.39277778" lon="-5.42277778">
    <name>CA084 Marchenilla</name>
    <sym>Circle</sym>
    <extensions>
      <identifier />
      <category />
    </extensions>
  </wpt>
  <wpt lat="36.51750000" lon="-6.24638889">
    <name>CA085 Matagorda</name>
    <sym>Circle</sym>
    <extensions>
      <identifier />
      <category />
    </extensions>
  </wpt>
  <wpt lat="36.46333333" lon="-5.92777778">
    <name>CA086 Medina Sidonia</name>
    <sym>Circle</sym>
    <extensions>
      <identifier />
      <category />
    </extensions>
  </wpt>
  <wpt lat="36.78500000" lon="-6.17361111">
    <name>CA087 Mesas de Asta</name>
    <sym>Circle</sym>
    <extensions>
      <identifier />
      <category />
    </extensions>
  </wpt>
  <wpt lat="36.76833333" lon="-5.95055556">
    <name>CA088 Mesas de Santiago</name>
    <sym>Circle</sym>
    <extensions>
      <identifier />
      <category />
    </extensions>
  </wpt>
  <wpt lat="36.46583333" lon="-5.64166667">
    <name>CA089 Molino de Castro</name>
    <sym>Circle</sym>
    <extensions>
      <identifier />
      <category />
    </extensions>
  </wpt>
  <wpt lat="36.75694444" lon="-6.03305556">
    <name>CA090 Nueva Jarilla</name>
    <sym>Circle</sym>
    <extensions>
      <identifier />
      <category />
    </extensions>
  </wpt>
  <wpt lat="36.93722222" lon="-5.26305556">
    <name>CA091 Olvera</name>
    <sym>Circle</sym>
    <extensions>
      <identifier />
      <category />
    </extensions>
  </wpt>
  <wpt lat="36.17805556" lon="-5.43277778">
    <name>CA092 Palmones</name>
    <sym>Circle</sym>
    <extensions>
      <identifier />
      <category />
    </extensions>
  </wpt>
  <wpt lat="36.06972222" lon="-5.72750000">
    <name>CA093 Paloma Baja</name>
    <sym>Circle</sym>
    <extensions>
      <identifier />
      <category />
    </extensions>
  </wpt>
  <wpt lat="36.46500000" lon="-5.67500000">
    <name>CA094 Patrite</name>
    <sym>Circle</sym>
    <extensions>
      <identifier />
      <category />
    </extensions>
  </wpt>
  <wpt lat="36.41083333" lon="-5.82638889">
    <name>CA095 Pedregosillo</name>
    <sym>Circle</sym>
    <extensions>
      <identifier />
      <category />
    </extensions>
  </wpt>
  <wpt lat="37.02611111" lon="-5.43250000">
    <name>CA096 Pozo Amargo</name>
    <sym>Circle</sym>
    <extensions>
      <identifier />
      <category />
    </extensions>
  </wpt>
  <wpt lat="36.78888889" lon="-5.55916667">
    <name>CA097 Prado del Rey</name>
    <sym>Circle</sym>
    <extensions>
      <identifier />
      <category />
    </extensions>
  </wpt>
  <wpt lat="36.18305556" lon="-5.38750000">
    <name>CA098 Puente Mayorga</name>
    <sym>Circle</sym>
    <extensions>
      <identifier />
      <category />
    </extensions>
  </wpt>
  <wpt lat="36.53472222" lon="-6.18333333">
    <name>CA099 Puerto Real</name>
    <sym>Circle</sym>
    <extensions>
      <identifier />
      <category />
    </extensions>
  </wpt>
  <wpt lat="36.92666667" lon="-5.54472222">
    <name>CA100 Puerto Serrano</name>
    <sym>Circle</sym>
    <extensions>
      <identifier />
      <category />
    </extensions>
  </wpt>
  <wpt lat="36.62472222" lon="-6.36194444">
    <name>CA101 Rota</name>
    <sym>Circle</sym>
    <extensions>
      <identifier />
      <category />
    </extensions>
  </wpt>
  <wpt lat="36.30777778" lon="-5.28972222">
    <name>CA102 San Enrique</name>
    <sym>Circle</sym>
    <extensions>
      <identifier />
      <category />
    </extensions>
  </wpt>
  <wpt lat="36.47027778" lon="-6.19750000">
    <name>CA103 San Fernando</name>
    <sym>Circle</sym>
    <extensions>
      <identifier />
      <category />
    </extensions>
  </wpt>
  <wpt lat="36.36222222" lon="-5.86972222">
    <name>CA104 San José de Malcocinado</name>
    <sym>Circle</sym>
    <extensions>
      <identifier />
      <category />
    </extensions>
  </wpt>
  <wpt lat="36.34222222" lon="-5.31888889">
    <name>CA105 San Martín del Tesorillo</name>
    <sym>Circle</sym>
    <extensions>
      <identifier />
      <category />
    </extensions>
  </wpt>
  <wpt lat="36.21361111" lon="-5.38805556">
    <name>CA106 San Roque</name>
    <sym>Circle</sym>
    <extensions>
      <identifier />
      <category />
    </extensions>
  </wpt>
  <wpt lat="36.39444444" lon="-6.20527778">
    <name>CA107 Sancti Petri</name>
    <sym>Circle</sym>
    <extensions>
      <identifier />
      <category />
    </extensions>
  </wpt>
  <wpt lat="36.78277778" lon="-6.35111111">
    <name>CA108 Sanlúcar de Barrameda</name>
    <sym>Circle</sym>
    <extensions>
      <identifier />
      <category />
    </extensions>
  </wpt>
  <wpt lat="36.86666667" lon="-5.17888889">
    <name>CA109 Setenil</name>
    <sym>Circle</sym>
    <extensions>
      <identifier />
      <category />
    </extensions>
  </wpt>
  <wpt lat="36.28722222" lon="-5.30500000">
    <name>CA110 Sotogrande</name>
    <sym>Circle</sym>
    <extensions>
      <identifier />
      <category />
    </extensions>
  </wpt>
  <wpt lat="36.18472222" lon="-5.75888889">
    <name>CA111 Tahivilla</name>
    <sym>Circle</sym>
    <extensions>
      <identifier />
      <category />
    </extensions>
  </wpt>
  <wpt lat="36.21000000" lon="-5.42250000">
    <name>CA112 Taraguilla</name>
    <sym>Circle</sym>
    <extensions>
      <identifier />
      <category />
    </extensions>
  </wpt>
  <wpt lat="36.01777778" lon="-5.59888889">
    <name>CA113 Tarifa</name>
    <sym>Circle</sym>
    <extensions>
      <identifier />
      <category />
    </extensions>
  </wpt>
  <wpt lat="36.91722222" lon="-5.23388889">
    <name>CA114 Torre Alhaquime</name>
    <sym>Circle</sym>
    <extensions>
      <identifier />
      <category />
    </extensions>
  </wpt>
  <wpt lat="36.34194444" lon="-6.16000000">
    <name>CA115 Torre del Puerco</name>
    <sym>Circle</sym>
    <extensions>
      <identifier />
      <category />
    </extensions>
  </wpt>
  <wpt lat="36.23583333" lon="-6.06944444">
    <name>CA116 Torre Nueva</name>
    <sym>Circle</sym>
    <extensions>
      <identifier />
      <category />
    </extensions>
  </wpt>
  <wpt lat="36.86944444" lon="-6.17444444">
    <name>CA117 Trebujena</name>
    <sym>Circle</sym>
    <extensions>
      <identifier />
      <category />
    </extensions>
  </wpt>
  <wpt lat="36.67916667" lon="-5.44583333">
    <name>CA118 Ubrique</name>
    <sym>Circle</sym>
    <extensions>
      <identifier />
      <category />
    </extensions>
  </wpt>
  <wpt lat="36.58277778" lon="-6.22277778">
    <name>CA119 Valdelagrana</name>
    <sym>Circle</sym>
    <extensions>
      <identifier />
      <category />
    </extensions>
  </wpt>
  <wpt lat="36.25277778" lon="-5.96611111">
    <name>CA120 Vejer de la Frontera</name>
    <sym>Circle</sym>
    <extensions>
      <identifier />
      <category />
    </extensions>
  </wpt>
  <wpt lat="36.86388889" lon="-5.64444444">
    <name>CA121 Villamartín</name>
    <sym>Circle</sym>
    <extensions>
      <identifier />
      <category />
    </extensions>
  </wpt>
  <wpt lat="36.69750000" lon="-5.38472222">
    <name>CA122 Villanueva del Rosario</name>
    <sym>Circle</sym>
    <extensions>
      <identifier />
      <category />
    </extensions>
  </wpt>
  <wpt lat="36.84055556" lon="-5.38833333">
    <name>CA123 Zahara</name>
    <sym>Circle</sym>
    <extensions>
      <identifier />
      <category />
    </extensions>
  </wpt>
  <wpt lat="36.13805556" lon="-5.84305556">
    <name>CA124 Zahara de los Atunes</name>
    <sym>Circle</sym>
    <extensions>
      <identifier />
      <category />
    </extensions>
  </wpt>
  <wpt lat="38.03083333" lon="-4.52388889">
    <name>CO001 Adamuz</name>
    <sym>Circle</sym>
    <extensions>
      <identifier />
      <category />
    </extensions>
  </wpt>
  <wpt lat="37.51888889" lon="-4.65777778">
    <name>CO002 Aguilar de la Frontera</name>
    <sym>Circle</sym>
    <extensions>
      <identifier />
      <category />
    </extensions>
  </wpt>
  <wpt lat="37.67166667" lon="-4.23583333">
    <name>CO003 Albendín</name>
    <sym>Circle</sym>
    <extensions>
      <identifier />
      <category />
    </extensions>
  </wpt>
  <wpt lat="38.38777778" lon="-4.96638889">
    <name>CO004 Alcaracejos</name>
    <sym>Circle</sym>
    <extensions>
      <identifier />
      <category />
    </extensions>
  </wpt>
  <wpt lat="37.93500000" lon="-4.67250000">
    <name>CO005 Alcolea</name>
    <sym>Circle</sym>
    <extensions>
      <identifier />
      <category />
    </extensions>
  </wpt>
  <wpt lat="37.71166667" lon="-4.87111111">
    <name>CO006 Aldea Quintana</name>
    <sym>Circle</sym>
    <extensions>
      <identifier />
      <category />
    </extensions>
  </wpt>
  <wpt lat="38.00138889" lon="-4.45416667">
    <name>CO007 Algallarín</name>
    <sym>Circle</sym>
    <extensions>
      <identifier />
      <category />
    </extensions>
  </wpt>
  <wpt lat="37.44361111" lon="-4.08583333">
    <name>CO008 Almedinilla</name>
    <sym>Circle</sym>
    <extensions>
      <identifier />
      <category />
    </extensions>
  </wpt>
  <wpt lat="37.81527778" lon="-5.02166667">
    <name>CO009 Almodóvar del Río</name>
    <sym>Circle</sym>
    <extensions>
      <identifier />
      <category />
    </extensions>
  </wpt>
  <wpt lat="38.41166667" lon="-4.89944444">
    <name>CO010 Añora</name>
    <sym>Circle</sym>
    <extensions>
      <identifier />
      <category />
    </extensions>
  </wpt>
  <wpt lat="38.20333333" lon="-5.48583333">
    <name>CO011 Argallón</name>
    <sym>Circle</sym>
    <extensions>
      <identifier />
      <category />
    </extensions>
  </wpt>
  <wpt lat="38.32666667" lon="-4.32833333">
    <name>CO012 Azuel</name>
    <sym>Circle</sym>
    <extensions>
      <identifier />
      <category />
    </extensions>
  </wpt>
  <wpt lat="37.61916667" lon="-4.32416667">
    <name>CO013 Baena</name>
    <sym>Circle</sym>
    <extensions>
      <identifier />
      <category />
    </extensions>
  </wpt>
  <wpt lat="38.57722222" lon="-5.16638889">
    <name>CO014 Belalcázar</name>
    <sym>Circle</sym>
    <extensions>
      <identifier />
      <category />
    </extensions>
  </wpt>
  <wpt lat="38.27583333" lon="-5.20750000">
    <name>CO015 Belmez</name>
    <sym>Circle</sym>
    <extensions>
      <identifier />
      <category />
    </extensions>
  </wpt>
  <wpt lat="37.79777778" lon="-5.23305556">
    <name>CO016 Bembézar</name>
    <sym>Circle</sym>
    <extensions>
      <identifier />
      <category />
    </extensions>
  </wpt>
  <wpt lat="37.27111111" lon="-4.53972222">
    <name>CO017 Benamejí</name>
    <sym>Circle</sym>
    <extensions>
      <identifier />
      <category />
    </extensions>
  </wpt>
  <wpt lat="37.89555556" lon="-4.37861111">
    <name>CO018 Bujalance</name>
    <sym>Circle</sym>
    <extensions>
      <identifier />
      <category />
    </extensions>
  </wpt>
  <wpt lat="37.47361111" lon="-4.43666667">
    <name>CO019 Cabra</name>
    <sym>Circle</sym>
    <extensions>
      <identifier />
      <category />
    </extensions>
  </wpt>
  <wpt lat="37.54527778" lon="-4.16111111">
    <name>CO020 Campo Nubes</name>
    <sym>Circle</sym>
    <extensions>
      <identifier />
      <category />
    </extensions>
  </wpt>
  <wpt lat="38.20750000" lon="-5.40500000">
    <name>CO021 Cañada del Gamo</name>
    <sym>Circle</sym>
    <extensions>
      <identifier />
      <category />
    </extensions>
  </wpt>
  <wpt lat="37.86944444" lon="-4.31666667">
    <name>CO022 Cañete de las Torres</name>
    <sym>Circle</sym>
    <extensions>
      <identifier />
      <category />
    </extensions>
  </wpt>
  <wpt lat="37.44500000" lon="-4.27222222">
    <name>CO023 Carcabuey</name>
    <sym>Circle</sym>
    <extensions>
      <identifier />
      <category />
    </extensions>
  </wpt>
  <wpt lat="38.27222222" lon="-4.32222222">
    <name>CO024 Cardeña</name>
    <sym>Circle</sym>
    <extensions>
      <identifier />
      <category />
    </extensions>
  </wpt>
  <wpt lat="37.49277778" lon="-4.14166667">
    <name>CO025 Castil de Campos</name>
    <sym>Circle</sym>
    <extensions>
      <identifier />
      <category />
    </extensions>
  </wpt>
  <wpt lat="37.69250000" lon="-4.47888889">
    <name>CO026 Castro del Río</name>
    <sym>Circle</sym>
    <extensions>
      <identifier />
      <category />
    </extensions>
  </wpt>
  <wpt lat="38.11222222" lon="-4.93694444">
    <name>CO027 Central Térmica Puente Nuevo</name>
    <sym>Circle</sym>
    <extensions>
      <identifier />
      <category />
    </extensions>
  </wpt>
  <wpt lat="38.00583333" lon="-4.77027778">
    <name>CO028 Cerro Muriano</name>
    <sym>Circle</sym>
    <extensions>
      <identifier />
      <category />
    </extensions>
  </wpt>
  <wpt lat="37.75305556" lon="-5.25861111">
    <name>CO029 Céspedes</name>
    <sym>Circle</sym>
    <extensions>
      <identifier />
      <category />
    </extensions>
  </wpt>
  <wpt lat="38.40944444" lon="-4.50027778">
    <name>CO030 Conquista</name>
    <sym>Circle</sym>
    <extensions>
      <identifier />
      <category />
    </extensions>
  </wpt>
  <wpt lat="37.87416667" lon="-4.77416667">
    <name>CO031 Córdoba</name>
    <sym>Circle</sym>
    <extensions>
      <identifier />
      <category />
    </extensions>
  </wpt>
  <wpt lat="37.36083333" lon="-4.73027778">
    <name>CO032 Cordobilla</name>
    <sym>Circle</sym>
    <extensions>
      <identifier />
      <category />
    </extensions>
  </wpt>
  <wpt lat="38.32583333" lon="-5.55527778">
    <name>CO033 Cuenca</name>
    <sym>Circle</sym>
    <extensions>
      <identifier />
      <category />
    </extensions>
  </wpt>
  <wpt lat="37.55916667" lon="-4.35277778">
    <name>CO034 Doña Mencia</name>
    <sym>Circle</sym>
    <extensions>
      <identifier />
      <category />
    </extensions>
  </wpt>
  <wpt lat="38.22222222" lon="-5.27194444">
    <name>CO035 Doña Rama</name>
    <sym>Circle</sym>
    <extensions>
      <identifier />
      <category />
    </extensions>
  </wpt>
  <wpt lat="38.44472222" lon="-4.89500000">
    <name>CO036 Dos Torres</name>
    <sym>Circle</sym>
    <extensions>
      <identifier />
      <category />
    </extensions>
  </wpt>
  <wpt lat="37.86000000" lon="-5.37500000">
    <name>CO037 El Aguila</name>
    <sym>Circle</sym>
    <extensions>
      <identifier />
      <category />
    </extensions>
  </wpt>
  <wpt lat="38.18222222" lon="-5.32722222">
    <name>CO038 El Alcornocal</name>
    <sym>Circle</sym>
    <extensions>
      <identifier />
      <category />
    </extensions>
  </wpt>
  <wpt lat="37.63694444" lon="-4.56750000">
    <name>CO039 El Arenal</name>
    <sym>Circle</sym>
    <extensions>
      <identifier />
      <category />
    </extensions>
  </wpt>
  <wpt lat="38.07555556" lon="-5.41305556">
    <name>CO040 El Cabril</name>
    <sym>Circle</sym>
    <extensions>
      <identifier />
      <category />
    </extensions>
  </wpt>
  <wpt lat="37.67055556" lon="-5.39000000">
    <name>CO049 El Calonge</name>
    <sym>Circle</sym>
    <extensions>
      <identifier />
      <category />
    </extensions>
  </wpt>
  <wpt lat="37.50972222" lon="-4.16138889">
    <name>CO050 El Cañuelo</name>
    <sym>Circle</sym>
    <extensions>
      <identifier />
      <category />
    </extensions>
  </wpt>
  <wpt lat="37.94000000" lon="-4.49027778">
    <name>CO051 El Carpio</name>
    <sym>Circle</sym>
    <extensions>
      <identifier />
      <category />
    </extensions>
  </wpt>
  <wpt lat="38.21333333" lon="-5.20000000">
    <name>CO053 El Entredicho</name>
    <sym>Circle</sym>
    <extensions>
      <identifier />
      <category />
    </extensions>
  </wpt>
  <wpt lat="37.55916667" lon="-4.80277778">
    <name>CO055 El Fontanar</name>
    <sym>Circle</sym>
    <extensions>
      <identifier />
      <category />
    </extensions>
  </wpt>
  <wpt lat="37.68388889" lon="-4.97777778">
    <name>CO056 El Garabato</name>
    <sym>Circle</sym>
    <extensions>
      <identifier />
      <category />
    </extensions>
  </wpt>
  <wpt lat="37.32083333" lon="-4.25472222">
    <name>CO057 El Higueral</name>
    <sym>Circle</sym>
    <extensions>
      <identifier />
      <category />
    </extensions>
  </wpt>
  <wpt lat="37.85777778" lon="-4.84166667">
    <name>CO058 El Higuerón</name>
    <sym>Circle</sym>
    <extensions>
      <identifier />
      <category />
    </extensions>
  </wpt>
  <wpt lat="37.47027778" lon="-4.12722222">
    <name>CO061 El Poleo</name>
    <sym>Circle</sym>
    <extensions>
      <identifier />
      <category />
    </extensions>
  </wpt>
  <wpt lat="37.23833333" lon="-4.54333333">
    <name>CO065 El Tejar</name>
    <sym>Circle</sym>
    <extensions>
      <identifier />
      <category />
    </extensions>
  </wpt>
  <wpt lat="38.07861111" lon="-4.86250000">
    <name>CO066 El Vacar</name>
    <sym>Circle</sym>
    <extensions>
      <identifier />
      <category />
    </extensions>
  </wpt>
  <wpt lat="38.48638889" lon="-4.95722222">
    <name>CO067 El Viso</name>
    <sym>Circle</sym>
    <extensions>
      <identifier />
      <category />
    </extensions>
  </wpt>
  <wpt lat="37.83250000" lon="-4.91944444">
    <name>CO068 Encinarejo de Córdoba</name>
    <sym>Circle</sym>
    <extensions>
      <identifier />
      <category />
    </extensions>
  </wpt>
  <wpt lat="37.27555556" lon="-4.48722222">
    <name>CO069 Encinas Reales</name>
    <sym>Circle</sym>
    <extensions>
      <identifier />
      <category />
    </extensions>
  </wpt>
  <wpt lat="37.68111111" lon="-4.55444444">
    <name>CO070 Espejo</name>
    <sym>Circle</sym>
    <extensions>
      <identifier />
      <category />
    </extensions>
  </wpt>
  <wpt lat="38.19138889" lon="-5.02083333">
    <name>CO071 Espiel</name>
    <sym>Circle</sym>
    <extensions>
      <identifier />
      <category />
    </extensions>
  </wpt>
  <wpt lat="37.67305556" lon="-4.72222222">
    <name>CO072 Fernán Núñez</name>
    <sym>Circle</sym>
    <extensions>
      <identifier />
      <category />
    </extensions>
  </wpt>
  <wpt lat="37.67166667" lon="-5.15472222">
    <name>CO073 Fuente Carretero</name>
    <sym>Circle</sym>
    <extensions>
      <identifier />
      <category />
    </extensions>
  </wpt>
  <wpt lat="38.42444444" lon="-5.04666667">
    <name>CO074 Fuente la Lancha</name>
    <sym>Circle</sym>
    <extensions>
      <identifier />
      <category />
    </extensions>
  </wpt>
  <wpt lat="38.26750000" lon="-5.42027778">
    <name>CO075 Fuente Obejuna</name>
    <sym>Circle</sym>
    <extensions>
      <identifier />
      <category />
    </extensions>
  </wpt>
  <wpt lat="37.70638889" lon="-5.10333333">
    <name>CO076 Fuente Palmera</name>
    <sym>Circle</sym>
    <extensions>
      <identifier />
      <category />
    </extensions>
  </wpt>
  <wpt lat="37.51166667" lon="-4.14416667">
    <name>CO077 Fuente Tójar</name>
    <sym>Circle</sym>
    <extensions>
      <identifier />
      <category />
    </extensions>
  </wpt>
  <wpt lat="37.20916667" lon="-4.30305556">
    <name>CO078 Fuentes del Conde</name>
    <sym>Circle</sym>
    <extensions>
      <identifier />
      <category />
    </extensions>
  </wpt>
  <wpt lat="37.42333333" lon="-4.37555556">
    <name>CO080 Gaena Casas Gallegas</name>
    <sym>Circle</sym>
    <extensions>
      <identifier />
      <category />
    </extensions>
  </wpt>
  <wpt lat="37.75805556" lon="-4.94444444">
    <name>CO081 Guadalcázar</name>
    <sym>Circle</sym>
    <extensions>
      <identifier />
      <category />
    </extensions>
  </wpt>
  <wpt lat="38.49694444" lon="-4.78083333">
    <name>CO082 Guijo</name>
    <sym>Circle</sym>
    <extensions>
      <identifier />
      <category />
    </extensions>
  </wpt>
  <wpt lat="38.50111111" lon="-5.14388889">
    <name>CO083 Hinojosa del Duque</name>
    <sym>Circle</sym>
    <extensions>
      <identifier />
      <category />
    </extensions>
  </wpt>
  <wpt lat="37.83444444" lon="-5.24416667">
    <name>CO084 Hornachuelos</name>
    <sym>Circle</sym>
    <extensions>
      <identifier />
      <category />
    </extensions>
  </wpt>
  <wpt lat="37.25888889" lon="-4.30444444">
    <name>CO085 Iznájar</name>
    <sym>Circle</sym>
    <extensions>
      <identifier />
      <category />
    </extensions>
  </wpt>
  <wpt lat="37.30361111" lon="-4.65500000">
    <name>CO087 Jauja</name>
    <sym>Circle</sym>
    <extensions>
      <identifier />
      <category />
    </extensions>
  </wpt>
  <wpt lat="38.14805556" lon="-5.34833333">
    <name>CO091 La Cardenchosa</name>
    <sym>Circle</sym>
    <extensions>
      <identifier />
      <category />
    </extensions>
  </wpt>
  <wpt lat="37.67583333" lon="-4.93250000">
    <name>CO092 La Carlota</name>
    <sym>Circle</sym>
    <extensions>
      <identifier />
      <category />
    </extensions>
  </wpt>
  <wpt lat="37.70222222" lon="-4.95083333">
    <name>CO094 La Chica Carlota</name>
    <sym>Circle</sym>
    <extensions>
      <identifier />
      <category />
    </extensions>
  </wpt>
  <wpt lat="37.71055556" lon="-4.99027778">
    <name>CO098 La Fuencubierta</name>
    <sym>Circle</sym>
    <extensions>
      <identifier />
      <category />
    </extensions>
  </wpt>
  <wpt lat="37.41111111" lon="-4.09333333">
    <name>CO099 La Fuente Grande</name>
    <sym>Circle</sym>
    <extensions>
      <identifier />
      <category />
    </extensions>
  </wpt>
  <wpt lat="38.37138889" lon="-5.35166667">
    <name>CO101 La Granjuela</name>
    <sym>Circle</sym>
    <extensions>
      <identifier />
      <category />
    </extensions>
  </wpt>
  <wpt lat="37.64250000" lon="-4.86555556">
    <name>CO102 La Guijarrosa</name>
    <sym>Circle</sym>
    <extensions>
      <identifier />
      <category />
    </extensions>
  </wpt>
  <wpt lat="37.52638889" lon="-4.91888889">
    <name>CO106 La Montiela</name>
    <sym>Circle</sym>
    <extensions>
      <identifier />
      <category />
    </extensions>
  </wpt>
  <wpt lat="37.60722222" lon="-4.74277778">
    <name>CO109 La Rambla</name>
    <sym>Circle</sym>
    <extensions>
      <identifier />
      <category />
    </extensions>
  </wpt>
  <wpt lat="37.68388889" lon="-4.84972222">
    <name>CO111 La Victoria</name>
    <sym>Circle</sym>
    <extensions>
      <identifier />
      <category />
    </extensions>
  </wpt>
  <wpt lat="37.47611111" lon="-4.11138889">
    <name>CO113 Las Higueras</name>
    <sym>Circle</sym>
    <extensions>
      <identifier />
      <category />
    </extensions>
  </wpt>
  <wpt lat="37.35500000" lon="-4.24638889">
    <name>CO114 Las Lagunillas</name>
    <sym>Circle</sym>
    <extensions>
      <identifier />
      <category />
    </extensions>
  </wpt>
  <wpt lat="37.71055556" lon="-4.94888889">
    <name>CO116 Las Pinedas</name>
    <sym>Circle</sym>
    <extensions>
      <identifier />
      <category />
    </extensions>
  </wpt>
  <wpt lat="37.89166667" lon="-4.71500000">
    <name>CO117 Las Quemadas</name>
    <sym>Circle</sym>
    <extensions>
      <identifier />
      <category />
    </extensions>
  </wpt>
  <wpt lat="37.40916667" lon="-4.41250000">
    <name>CO119 Llanos de Don Juan</name>
    <sym>Circle</sym>
    <extensions>
      <identifier />
      <category />
    </extensions>
  </wpt>
  <wpt lat="37.56472222" lon="-4.52500000">
    <name>CO120 Llanos del Espinar</name>
    <sym>Circle</sym>
    <extensions>
      <identifier />
      <category />
    </extensions>
  </wpt>
  <wpt lat="37.32555556" lon="-4.28861111">
    <name>CO122 Lorite</name>
    <sym>Circle</sym>
    <extensions>
      <identifier />
      <category />
    </extensions>
  </wpt>
  <wpt lat="37.63416667" lon="-4.93805556">
    <name>CO123 Los Algarbes</name>
    <sym>Circle</sym>
    <extensions>
      <identifier />
      <category />
    </extensions>
  </wpt>
  <wpt lat="38.40916667" lon="-5.43833333">
    <name>CO126 Los Blázquez</name>
    <sym>Circle</sym>
    <extensions>
      <identifier />
      <category />
    </extensions>
  </wpt>
  <wpt lat="37.81444444" lon="-4.96444444">
    <name>CO127 Los Mochos</name>
    <sym>Circle</sym>
    <extensions>
      <identifier />
      <category />
    </extensions>
  </wpt>
  <wpt lat="37.93166667" lon="-4.80861111">
    <name>CO128 Los Morales</name>
    <sym>Circle</sym>
    <extensions>
      <identifier />
      <category />
    </extensions>
  </wpt>
  <wpt lat="38.14861111" lon="-5.35805556">
    <name>CO129 Los Morenos</name>
    <sym>Circle</sym>
    <extensions>
      <identifier />
      <category />
    </extensions>
  </wpt>
  <wpt lat="38.19305556" lon="-5.32833333">
    <name>CO130 Los Pánchez</name>
    <sym>Circle</sym>
    <extensions>
      <identifier />
      <category />
    </extensions>
  </wpt>
  <wpt lat="37.41361111" lon="-4.48444444">
    <name>CO133 Lucena</name>
    <sym>Circle</sym>
    <extensions>
      <identifier />
      <category />
    </extensions>
  </wpt>