<?xml version="1.0" encoding="UTF-8" standalone="no" ?>
<gpx xmlns:xsi="http://www.w3.org/2001/XMLSchema-instance" xsi:schemaLocation="http://www.topografix.com/GPX/1/1 http://www.topografix.com/GPX/1/1/gpx.xsd" version="1.1" creator="Coordinates script v2022.10.21" xmlns="http://www.topografix.com/GPX/1/1">
  <wpt lat="37.50833333" lon="-0.09194445">
    <name>AL001 Abejuela</name>
    <sym>Circle</sym>
    <extensions>
      <identifier />
      <category />
    </extensions>
  </wpt>
  <wpt lat="37.14361110" lon="-1.22055557">
    <name>AL002 Abla</name>
    <sym>Circle</sym>
    <extensions>
      <identifier />
      <category />
    </extensions>
  </wpt>
  <wpt lat="37.13611110" lon="-1.20583334">
    <name>AL003 Abrucena</name>
    <sym>Circle</sym>
    <extensions>
      <identifier />
      <category />
    </extensions>
  </wpt>
  <wpt lat="36.75277777" lon="-2.97888890">
    <name>AL004 Adra</name>
    <sym>Circle</sym>
    <extensions>
      <identifier />
      <category />
    </extensions>
  </wpt>
  <wpt lat="36.94277777" lon="-0.06638890">
    <name>AL005 Agua Amarga</name>
    <sym>Circle</sym>
    <extensions>
      <identifier />
      <category />
    </extensions>
  </wpt>
  <wpt lat="37.07333332" lon="-0.13416667">
    <name>AL006 Agua de Medio</name>
    <sym>Circle</sym>
    <extensions>
      <identifier />
      <category />
    </extensions>
  </wpt>
  <wpt lat="36.81944443" lon="-1.43583334">
    <name>AL007 Aguadulce</name>
    <sym>Circle</sym>
    <extensions>
      <identifier />
      <category />
    </extensions>
  </wpt>
  <wpt lat="37.28861110" lon="-1.81888890">
    <name>AL008 Albanchez</name>
    <sym>Circle</sym>
    <extensions>
      <identifier />
      <category />
    </extensions>
  </wpt>
  <wpt lat="37.03972221" lon="-1.38055557">
    <name>AL009 Alboloduy</name>
    <sym>Circle</sym>
    <extensions>
      <identifier />
      <category />
    </extensions>
  </wpt>
  <wpt lat="37.39333333" lon="-1.85861112">
    <name>AL010 Albox</name>
    <sym>Circle</sym>
    <extensions>
      <identifier />
      <category />
    </extensions>
  </wpt>
  <wpt lat="36.83944444" lon="-1.06583334">
    <name>AL011 Alcaudique</name>
    <sym>Circle</sym>
    <extensions>
      <identifier />
      <category />
    </extensions>
  </wpt>
  <wpt lat="36.97499999" lon="-1.04055556">
    <name>AL012 Alcolea</name>
    <sym>Circle</sym>
    <extensions>
      <identifier />
      <category />
    </extensions>
  </wpt>
  <wpt lat="37.33805555" lon="-1.40416667">
    <name>AL013 Alcontar</name>
    <sym>Circle</sym>
    <extensions>
      <identifier />
      <category />
    </extensions>
  </wpt>
  <wpt lat="37.23944444" lon="-1.73416667">
    <name>AL014 Alcudia de Monteagud</name>
    <sym>Circle</sym>
    <extensions>
      <identifier />
      <category />
    </extensions>
  </wpt>
  <wpt lat="37.30388888" lon="-1.42000001">
    <name>AL015 Aldeire</name>
    <sym>Circle</sym>
    <extensions>
      <identifier />
      <category />
    </extensions>
  </wpt>
  <wpt lat="37.14611110" lon="-0.04138889">
    <name>AL016 Alfaix</name>
    <sym>Circle</sym>
    <extensions>
      <identifier />
      <category />
    </extensions>
  </wpt>
  <wpt lat="36.99222221" lon="-1.41222223">
    <name>AL017 Alhabia</name>
    <sym>Circle</sym>
    <extensions>
      <identifier />
      <category />
    </extensions>
  </wpt>
  <wpt lat="36.96027777" lon="-1.43111112">
    <name>AL018 Alhama de Almeria</name>
    <sym>Circle</sym>
    <extensions>
      <identifier />
      <category />
    </extensions>
  </wpt>
  <wpt lat="36.96861110" lon="-1.39833334">
    <name>AL019 Alicun</name>
    <sym>Circle</sym>
    <extensions>
      <identifier />
      <category />
    </extensions>
  </wpt>
  <wpt lat="36.75055555" lon="-1.78916667">
    <name>AL020 Almadrava de Monteleva</name>
    <sym>Circle</sym>
    <extensions>
      <identifier />
      <category />
    </extensions>
  </wpt>
  <wpt lat="37.39027777" lon="-0.00666667">
    <name>AL021 Almajalejo</name>
    <sym>Circle</sym>
    <extensions>
      <identifier />
      <category />
    </extensions>
  </wpt>
  <wpt lat="37.35166666" lon="-1.86527779">
    <name>AL022 Almanzora</name>
    <sym>Circle</sym>
    <extensions>
      <identifier />
      <category />
    </extensions>
  </wpt>
  <wpt lat="36.84972221" lon="-1.54361112">
    <name>AL023 Almeria</name>
    <sym>Circle</sym>
    <extensions>
      <identifier />
      <category />
    </extensions>
  </wpt>
  <wpt lat="36.69666666" lon="-1.21722223">
    <name>AL024 Almerimar</name>
    <sym>Circle</sym>
    <extensions>
      <identifier />
      <category />
    </extensions>
  </wpt>
  <wpt lat="37.30000000" lon="-1.21055556">
    <name>AL025 Almocita</name>
    <sym>Circle</sym>
    <extensions>
      <identifier />
      <category />
    </extensions>
  </wpt>
  <wpt lat="37.25000000" lon="-1.41027779">
    <name>AL026 Alsodux</name>
    <sym>Circle</sym>
    <extensions>
      <identifier />
      <category />
    </extensions>
  </wpt>
  <wpt lat="37.24666666" lon="-0.08083334">
    <name>AL027 Antas</name>
    <sym>Circle</sym>
    <extensions>
      <identifier />
      <category />
    </extensions>
  </wpt>
  <wpt lat="37.35388888" lon="-1.92583334">
    <name>AL028 Arboleas</name>
    <sym>Circle</sym>
    <extensions>
      <identifier />
      <category />
    </extensions>
  </wpt>
  <wpt lat="37.35166666" lon="-1.58972223">
    <name>AL029 Armuña de Almanzora</name>
    <sym>Circle</sym>
    <extensions>
      <identifier />
      <category />
    </extensions>
  </wpt>
  <wpt lat="36.88305554" lon="-1.83805556">
    <name>AL030 Atochares</name>
    <sym>Circle</sym>
    <extensions>
      <identifier />
      <category />
    </extensions>
  </wpt>
  <wpt lat="37.16166666" lon="-1.37277779">
    <name>AL031 Aulago</name>
    <sym>Circle</sym>
    <extensions>
      <identifier />
      <category />
    </extensions>
  </wpt>
  <wpt lat="37.26277777" lon="-1.54666667">
    <name>AL032 Bacares</name>
    <sym>Circle</sym>
    <extensions>
      <identifier />
      <category />
    </extensions>
  </wpt>
  <wpt lat="36.75083333" lon="-1.09694445">
    <name>AL033 Balanegra</name>
    <sym>Circle</sym>
    <extensions>
      <identifier />
      <category />
    </extensions>
  </wpt>
  <wpt lat="36.73305554" lon="-1.11444445">
    <name>AL034 Balerma</name>
    <sym>Circle</sym>
    <extensions>
      <identifier />
      <category />
    </extensions>
  </wpt>
  <wpt lat="37.03305554" lon="-1.00555556">
    <name>AL035 Bayarcal</name>
    <sym>Circle</sym>
    <extensions>
      <identifier />
      <category />
    </extensions>
  </wpt>
  <wpt lat="37.33055554" lon="-1.56666667">
    <name>AL036 Bayarque</name>
    <sym>Circle</sym>
    <extensions>
      <identifier />
      <category />
    </extensions>
  </wpt>
  <wpt lat="37.19166666" lon="-0.01888890">
    <name>AL037 Bedar</name>
    <sym>Circle</sym>
    <extensions>
      <identifier />
      <category />
    </extensions>
  </wpt>
  <wpt lat="37.88333333" lon="-1.20972223">
    <name>AL038 Beires</name>
    <sym>Circle</sym>
    <extensions>
      <identifier />
      <category />
    </extensions>
  </wpt>
  <wpt lat="37.59527777" lon="-1.87861112">
    <name>AL039 Belaimi</name>
    <sym>Circle</sym>
    <extensions>
      <identifier />
      <category />
    </extensions>
  </wpt>
  <wpt lat="36.92638888" lon="-1.54333334">
    <name>AL040 Benahadux</name>
    <sym>Circle</sym>
    <extensions>
      <identifier />
      <category />
    </extensions>
  </wpt>
  <wpt lat="36.99138888" lon="-1.14138889">
    <name>AL041 Benecid</name>
    <sym>Circle</sym>
    <extensions>
      <identifier />
      <category />
    </extensions>
  </wpt>
  <wpt lat="36.88472221" lon="-2.97972223">
    <name>AL042 Beninar</name>
    <sym>Circle</sym>
    <extensions>
      <identifier />
      <category />
    </extensions>
  </wpt>
  <wpt lat="37.23305554" lon="-1.76250001">
    <name>AL043 Benitagla</name>
    <sym>Circle</sym>
    <extensions>
      <identifier />
      <category />
    </extensions>
  </wpt>
  <wpt lat="37.24638888" lon="-1.70805556">
    <name>AL044 Benitofare</name>
    <sym>Circle</sym>
    <extensions>
      <identifier />
      <category />
    </extensions>
  </wpt>
  <wpt lat="37.21472222" lon="-1.76000001">
    <name>AL045 Benizalón</name>
    <sym>Circle</sym>
    <extensions>
      <identifier />
      <category />
    </extensions>
  </wpt>
  <wpt lat="36.99055555" lon="-1.37944446">
    <name>AL046 Bentarique</name>
    <sym>Circle</sym>
    <extensions>
      <identifier />
      <category />
    </extensions>
  </wpt>
  <wpt lat="36.84722221" lon="-1.05194445">
    <name>AL047 Berja</name>
    <sym>Circle</sym>
    <extensions>
      <identifier />
      <category />
    </extensions>
  </wpt>
  <wpt lat="37.59972221" lon="-1.89666667">
    <name>AL048 Bolaimi</name>
    <sym>Circle</sym>
    <extensions>
      <identifier />
      <category />
    </extensions>
  </wpt>
  <wpt lat="37.27499999" lon="-0.18944445">
    <name>AL049 Bujulu</name>
    <sym>Circle</sym>
    <extensions>
      <identifier />
      <category />
    </extensions>
  </wpt>
  <wpt lat="37.22111110" lon="-1.46083334">
    <name>AL050 Calar Alto</name>
    <sym>Circle</sym>
    <extensions>
      <identifier />
      <category />
    </extensions>
  </wpt>
  <wpt lat="37.06777777" lon="-1.95277779">
    <name>AL051 Campico</name>
    <sym>Circle</sym>
    <extensions>
      <identifier />
      <category />
    </extensions>
  </wpt>
  <wpt lat="36.93805555" lon="-1.86805557">
    <name>AL052 Campohermoso</name>
    <sym>Circle</sym>
    <extensions>
      <identifier />
      <category />
    </extensions>
  </wpt>
  <wpt lat="37.71666666" lon="-1.26000001">
    <name>AL053 Canjayar</name>
    <sym>Circle</sym>
    <extensions>
      <identifier />
      <category />
    </extensions>
  </wpt>
  <wpt lat="37.35416666" lon="-1.80944445">
    <name>AL054 Cantoria</name>
    <sym>Circle</sym>
    <extensions>
      <identifier />
      <category />
    </extensions>
  </wpt>
  <wpt lat="36.88416666" lon="-1.26666667">
    <name>AL055 Caracuz</name>
    <sym>Circle</sym>
    <extensions>
      <identifier />
      <category />
    </extensions>
  </wpt>
  <wpt lat="37.11666666" lon="-0.10527779">
    <name>AL056 Carboneras</name>
    <sym>Circle</sym>
    <extensions>
      <identifier />
      <category />
    </extensions>
  </wpt>
  <wpt lat="37.70416666" lon="-1.72583334">
    <name>AL057 Casablanca</name>
    <sym>Circle</sym>
    <extensions>
      <identifier />
      <category />
    </extensions>
  </wpt>
  <wpt lat="36.88638888" lon="-1.07166668">
    <name>AL058 Castala</name>
    <sym>Circle</sym>
    <extensions>
      <identifier />
      <category />
    </extensions>
  </wpt>
  <wpt lat="36.83333333" lon="-1.50222223">
    <name>AL059 Castel del Rey</name>
    <sym>Circle</sym>
    <extensions>
      <identifier />
      <category />
    </extensions>
  </wpt>
  <wpt lat="37.18611110" lon="-1.56000001">
    <name>AL060 Castro de Filabres</name>
    <sym>Circle</sym>
    <extensions>
      <identifier />
      <category />
    </extensions>
  </wpt>
  <wpt lat="37.37472221" lon="-1.55805556">
    <name>AL061 Cela</name>
    <sym>Circle</sym>
    <extensions>
      <identifier />
      <category />
    </extensions>
  </wpt>
  <wpt lat="36.83472221" lon="-1.12972223">
    <name>AL062 Celin</name>
    <sym>Circle</sym>
    <extensions>
      <identifier />
      <category />
    </extensions>
  </wpt>
  <wpt lat="37.26944443" lon="-1.74277778">
    <name>AL063 Chercos</name>
    <sym>Circle</sym>
    <extensions>
      <identifier />
      <category />
    </extensions>
  </wpt>
  <wpt lat="36.90027777" lon="-1.06083334">
    <name>AL064 Chiran</name>
    <sym>Circle</sym>
    <extensions>
      <identifier />
      <category />
    </extensions>
  </wpt>
  <wpt lat="37.59805555" lon="-1.73305557">
    <name>AL065 Chirivel</name>
    <sym>Circle</sym>
    <extensions>
      <identifier />
      <category />
    </extensions>
  </wpt>
  <wpt lat="37.26444444" lon="-1.79027778">
    <name>AL066 Cobdar</name>
    <sym>Circle</sym>
    <extensions>
      <identifier />
      <category />
    </extensions>
  </wpt>
  <wpt lat="36.75944444" lon="-1.34638889">
    <name>AL067 Cortijada de Marin</name>
    <sym>Circle</sym>
    <extensions>
      <identifier />
      <category />
    </extensions>
  </wpt>
  <wpt lat="36.87666666" lon="-1.55222223">
    <name>AL068 Cortijo de los Callejones</name>
    <sym>Circle</sym>
    <extensions>
      <identifier />
      <category />
    </extensions>
  </wpt>
  <wpt lat="37.30500000" lon="-0.12055557">
    <name>AL069 Cuevas de Almanzora</name>
    <sym>Circle</sym>
    <extensions>
      <identifier />
      <category />
    </extensions>
  </wpt>
  <wpt lat="36.82527777" lon="-1.12805557">
    <name>AL070 Dalías</name>
    <sym>Circle</sym>
    <extensions>
      <identifier />
      <category />
    </extensions>
  </wpt>
  <wpt lat="36.92055554" lon="-2.97250001">
    <name>AL071 Darrical</name>
    <sym>Circle</sym>
    <extensions>
      <identifier />
      <category />
    </extensions>
  </wpt>
  <wpt lat="37.13694444" lon="-1.28527778">
    <name>AL072 Doña Maria</name>
    <sym>Circle</sym>
    <extensions>
      <identifier />
      <category />
    </extensions>
  </wpt>
  <wpt lat="37.31222222" lon="-0.11611112">
    <name>AL073 El Alhanchete</name>
    <sym>Circle</sym>
    <extensions>
      <identifier />
      <category />
    </extensions>
  </wpt>
  <wpt lat="37.15944444" lon="-1.46055556">
    <name>AL074 El Almendral</name>
    <sym>Circle</sym>
    <extensions>
      <identifier />
      <category />
    </extensions>
  </wpt>
  <wpt lat="36.85500000" lon="-1.64500000">
    <name>AL075 El Alquian</name>
    <sym>Circle</sym>
    <extensions>
      <identifier />
      <category />
    </extensions>
  </wpt>
  <wpt lat="36.99833333" lon="-0.02972223">
    <name>AL076 El Argamason</name>
    <sym>Circle</sym>
    <extensions>
      <identifier />
      <category />
    </extensions>
  </wpt>
  <wpt lat="37.34277777" lon="-1.93250001">
    <name>AL077 El Arroyo Aceituno</name>
    <sym>Circle</sym>
    <extensions>
      <identifier />
      <category />
    </extensions>
  </wpt>
  <wpt lat="37.27499999" lon="-0.22083334">
    <name>AL078 El Arteal</name>
    <sym>Circle</sym>
    <extensions>
      <identifier />
      <category />
    </extensions>
  </wpt>
  <wpt lat="37.08999999" lon="-1.82472223">
    <name>AL079 El Barranco de los Lobos</name>
    <sym>Circle</sym>
    <extensions>
      <identifier />
      <category />
    </extensions>
  </wpt>
  <wpt lat="36.84111110" lon="-1.80444445">
    <name>AL080 El Barranquete</name>
    <sym>Circle</sym>
    <extensions>
      <identifier />
      <category />
    </extensions>
  </wpt>
  <wpt lat="36.82916666" lon="-1.59194445">
    <name>AL081 El Bobar</name>
    <sym>Circle</sym>
    <extensions>
      <identifier />
      <category />
    </extensions>
  </wpt>
  <wpt lat="36.78222221" lon="-1.75888890">
    <name>AL082 El Cabo de Gata</name>
    <sym>Circle</sym>
    <extensions>
      <identifier />
      <category />
    </extensions>
  </wpt>
  <wpt lat="37.53611110" lon="-1.78694445">
    <name>AL083 El Cantal</name>
    <sym>Circle</sym>
    <extensions>
      <identifier />
      <category />
    </extensions>
  </wpt>
  <wpt lat="37.69222221" lon="-1.95166667">
    <name>AL084 El Cercado</name>
    <sym>Circle</sym>
    <extensions>
      <identifier />
      <category />
    </extensions>
  </wpt>
  <wpt lat="37.48249999" lon="-1.61277779">
    <name>AL085 El Chaparral Bajo</name>
    <sym>Circle</sym>
    <extensions>
      <identifier />
      <category />
    </extensions>
  </wpt>
  <wpt lat="37.17972221" lon="-1.92694446">
    <name>AL086 El Chive</name>
    <sym>Circle</sym>
    <extensions>
      <identifier />
      <category />
    </extensions>
  </wpt>
  <wpt lat="36.91638888" lon="-1.54666667">
    <name>AL087 El Chuche</name>
    <sym>Circle</sym>
    <extensions>
      <identifier />
      <category />
    </extensions>
  </wpt>
  <wpt lat="36.88638888" lon="-1.02666668">
    <name>AL088 El Cid</name>
    <sym>Circle</sym>
    <extensions>
      <identifier />
      <category />
    </extensions>
  </wpt>
  <wpt lat="37.40694444" lon="-0.32777779">
    <name>AL089 El Cocon</name>
    <sym>Circle</sym>
    <extensions>
      <identifier />
      <category />
    </extensions>
  </wpt>
  <wpt lat="37.59111110" lon="-1.63861112">
    <name>AL090 El Contador</name>
    <sym>Circle</sym>
    <extensions>
      <identifier />
      <category />
    </extensions>
  </wpt>
  <wpt lat="36.77777777" lon="-1.18083334">
    <name>AL091 El Ejido</name>
    <sym>Circle</sym>
    <extensions>
      <identifier />
      <category />
    </extensions>
  </wpt>
  <wpt lat="37.39777777" lon="-1.41000001">
    <name>AL092 El Hijate</name>
    <sym>Circle</sym>
    <extensions>
      <identifier />
      <category />
    </extensions>
  </wpt>
  <wpt lat="37.57833332" lon="-1.75861112">
    <name>AL093 El Jali</name>
    <sym>Circle</sym>
    <extensions>
      <identifier />
      <category />
    </extensions>
  </wpt>
  <wpt lat="37.33777777" lon="-0.23277779">
    <name>AL094 El Largo</name>
    <sym>Circle</sym>
    <extensions>
      <identifier />
      <category />
    </extensions>
  </wpt>
  <wpt lat="37.06666666" lon="-0.06777779">
    <name>AL095 El Llano de Don Antonio</name>
    <sym>Circle</sym>
    <extensions>
      <identifier />
      <category />
    </extensions>
  </wpt>
  <wpt lat="37.21472222" lon="-1.97472223">
    <name>AL096 El Marchal</name>
    <sym>Circle</sym>
    <extensions>
      <identifier />
      <category />
    </extensions>
  </wpt>
  <wpt lat="37.52694443" lon="-1.76833334">
    <name>AL097 El Margen</name>
    <sym>Circle</sym>
    <extensions>
      <identifier />
      <category />
    </extensions>
  </wpt>
  <wpt lat="37.12333332" lon="-1.87916668">
    <name>AL098 El Mayordomo</name>
    <sym>Circle</sym>
    <extensions>
      <identifier />
      <category />
    </extensions>
  </wpt>
  <wpt lat="36.82472221" lon="-1.46472223">
    <name>AL099 El Palmer</name>
    <sym>Circle</sym>
    <extensions>
      <identifier />
      <category />
    </extensions>
  </wpt>
  <wpt lat="36.81027777" lon="-1.40027779">
    <name>AL100 El Parador</name>
    <sym>Circle</sym>
    <extensions>
      <identifier />
      <category />
    </extensions>
  </wpt>
  <wpt lat="36.77361110" lon="-1.03638889">
    <name>AL101 El Pardo</name>
    <sym>Circle</sym>
    <extensions>
      <identifier />
      <category />
    </extensions>
  </wpt>
  <wpt lat="37.67444443" lon="-1.97861112">
    <name>AL102 El Piar de Abajo</name>
    <sym>Circle</sym>
    <extensions>
      <identifier />
      <category />
    </extensions>
  </wpt>
  <wpt lat="37.19166666" lon="-1.90194445">
    <name>AL103 El Pilar</name>
    <sym>Circle</sym>
    <extensions>
      <identifier />
      <category />
    </extensions>
  </wpt>
  <wpt lat="37.24194444" lon="-1.95916667">
    <name>AL104 El Pocico</name>
    <sym>Circle</sym>
    <extensions>
      <identifier />
      <category />
    </extensions>
  </wpt>
  <wpt lat="36.79277777" lon="-1.89083334">
    <name>AL105 El Pozo de los Frailes</name>
    <sym>Circle</sym>
    <extensions>
      <identifier />
      <category />
    </extensions>
  </wpt>
  <wpt lat="37.33749999" lon="-0.30750001">
    <name>AL106 El Pozo del Esparto</name>
    <sym>Circle</sym>
    <extensions>
      <identifier />
      <category />
    </extensions>
  </wpt>
  <wpt lat="36.75777777" lon="-1.01444445">
    <name>AL107 El Puente del Rio</name>
    <sym>Circle</sym>
    <extensions>
      <identifier />
      <category />
    </extensions>
  </wpt>
  <wpt lat="37.51583333" lon="-0.01638890">
    <name>AL108 El Puertecito</name>
    <sym>Circle</sym>
    <extensions>
      <identifier />
      <category />
    </extensions>
  </wpt>
  <wpt lat="37.17305554" lon="-1.86916668">
    <name>AL109 El Puntal</name>
    <sym>Circle</sym>
    <extensions>
      <identifier />
      <category />
    </extensions>
  </wpt>
  <wpt lat="37.47694443" lon="-1.63888889">
    <name>AL110 El Puntal</name>
    <sym>Circle</sym>
    <extensions>
      <identifier />
      <category />
    </extensions>
  </wpt>
  <wpt lat="37.26277777" lon="-0.08750000">
    <name>AL111 El Real</name>
    <sym>Circle</sym>
    <extensions>
      <identifier />
      <category />
    </extensions>
  </wpt>
  <wpt lat="36.83888888" lon="-1.68611112">
    <name>AL112 El Retamar</name>
    <sym>Circle</sym>
    <extensions>
      <identifier />
      <category />
    </extensions>
  </wpt>
  <wpt lat="36.81722221" lon="-1.01000001">
    <name>AL113 El Rio Chico</name>
    <sym>Circle</sym>
    <extensions>
      <identifier />
      <category />
    </extensions>
  </wpt>
  <wpt lat="36.82249999" lon="-2.97416668">
    <name>AL114 El Rio Grande</name>
    <sym>Circle</sym>
    <extensions>
      <identifier />
      <category />
    </extensions>
  </wpt>
  <wpt lat="36.75555555" lon="-1.86111112">
    <name>AL115 El Romeral</name>
    <sym>Circle</sym>
    <extensions>
      <identifier />
      <category />
    </extensions>
  </wpt>
  <wpt lat="37.40555555" lon="-0.09027778">
    <name>AL116 El Salvador</name>
    <sym>Circle</sym>
    <extensions>
      <identifier />
      <category />
    </extensions>
  </wpt>
  <wpt lat="36.73944444" lon="-1.33916667">
    <name>AL117 El Solanillo</name>
    <sym>Circle</sym>
    <extensions>
      <identifier />
      <category />
    </extensions>
  </wpt>
  <wpt lat="36.88111110" lon="-1.79500000">
    <name>AL118 El Viso</name>
    <sym>Circle</sym>
    <extensions>
      <identifier />
      <category />
    </extensions>
  </wpt>
  <wpt lat="36.87944443" lon="-1.39916667">
    <name>AL119 Enix</name>
    <sym>Circle</sym>
    <extensions>
      <identifier />
      <category />
    </extensions>
  </wpt>
  <wpt lat="37.18055554" lon="-1.26583334">
    <name>AL120 Escullar</name>
    <sym>Circle</sym>
    <extensions>
      <identifier />
      <category />
    </extensions>
  </wpt>
  <wpt lat="36.86833332" lon="-1.34222223">
    <name>AL121 Felix</name>
    <sym>Circle</sym>
    <extensions>
      <identifier />
      <category />
    </extensions>
  </wpt>
  <wpt lat="36.91333333" lon="-1.93111112">
    <name>AL122 Fernan Perez</name>
    <sym>Circle</sym>
    <extensions>
      <identifier />
      <category />
    </extensions>
  </wpt>
  <wpt lat="37.36222222" lon="-1.73277779">
    <name>AL123 Fines</name>
    <sym>Circle</sym>
    <extensions>
      <identifier />
      <category />
    </extensions>
  </wpt>
  <wpt lat="37.17222221" lon="-1.16027779">
    <name>AL124 Fiñana</name>
    <sym>Circle</sym>
    <extensions>
      <identifier />
      <category />
    </extensions>
  </wpt>
  <wpt lat="36.98166666" lon="-1.14388889">
    <name>AL125 Fondon</name>
    <sym>Circle</sym>
    <extensions>
      <identifier />
      <category />
    </extensions>
  </wpt>
  <wpt lat="36.98749999" lon="-1.12416668">
    <name>AL126 Fuente Victoria</name>
    <sym>Circle</sym>
    <extensions>
      <identifier />
      <category />
    </extensions>
  </wpt>
  <wpt lat="36.95472222" lon="-1.51027779">
    <name>AL127 Gador</name>
    <sym>Circle</sym>
    <extensions>
      <identifier />
      <category />
    </extensions>
  </wpt>
  <wpt lat="37.65000000" lon="-0.01944446">
    <name>AL128 Gafares</name>
    <sym>Circle</sym>
    <extensions>
      <identifier />
      <category />
    </extensions>
  </wpt>
  <wpt lat="37.05916666" lon="-1.98055557">
    <name>AL129 Gafarrillos</name>
    <sym>Circle</sym>
    <extensions>
      <identifier />
      <category />
    </extensions>
  </wpt>
  <wpt lat="36.80750000" lon="-1.36222223">
    <name>AL130 Gangosa Vistasol</name>
    <sym>Circle</sym>
    <extensions>
      <identifier />
      <category />
    </extensions>
  </wpt>
  <wpt lat="37.42083332" lon="-0.17833334">
    <name>AL131 Garcia</name>
    <sym>Circle</sym>
    <extensions>
      <identifier />
      <category />
    </extensions>
  </wpt>
  <wpt lat="37.18749999" lon="-0.18055557">
    <name>AL132 Garrucha</name>
    <sym>Circle</sym>
    <extensions>
      <identifier />
      <category />
    </extensions>
  </wpt>
  <wpt lat="37.11916666" lon="-1.45833334">
    <name>AL133 Gergal</name>
    <sym>Circle</sym>
    <extensions>
      <identifier />
      <category />
    </extensions>
  </wpt>
  <wpt lat="37.49361110" lon="-0.12638890">
    <name>AL134 Goñar</name>
    <sym>Circle</sym>
    <extensions>
      <identifier />
      <category />
    </extensions>
  </wpt>
  <wpt lat="36.75055555" lon="-2.92666668">
    <name>AL135 Guainos Bajos</name>
    <sym>Circle</sym>
    <extensions>
      <identifier />
      <category />
    </extensions>
  </wpt>
  <wpt lat="36.70388888" lon="-1.15805556">
    <name>AL136 Guardias Viejas</name>
    <sym>Circle</sym>
    <extensions>
      <identifier />
      <category />
    </extensions>
  </wpt>
  <wpt lat="37.50000000" lon="-1.04583334">
    <name>AL137 Guarros</name>
    <sym>Circle</sym>
    <extensions>
      <identifier />
      <category />
    </extensions>
  </wpt>
  <wpt lat="37.35027777" lon="-0.22166668">
    <name>AL138 Guazamara</name>
    <sym>Circle</sym>
    <extensions>
      <identifier />
      <category />
    </extensions>
  </wpt>
  <wpt lat="37.38666666" lon="-1.50166667">
    <name>AL139 Higueral</name>
    <sym>Circle</sym>
    <extensions>
      <identifier />
      <category />
    </extensions>
  </wpt>
  <wpt lat="36.89499999" lon="-1.00138890">
    <name>AL140 Hirmes</name>
    <sym>Circle</sym>
    <extensions>
      <identifier />
      <category />
    </extensions>
  </wpt>
  <wpt lat="36.87472221" lon="-1.97166668">
    <name>AL141 Hortichuelas</name>
    <sym>Circle</sym>
    <extensions>
      <identifier />
      <category />
    </extensions>
  </wpt>
  <wpt lat="36.98861110" lon="-1.77805557">
    <name>AL142 Huebro</name>
    <sym>Circle</sym>
    <extensions>
      <identifier />
      <category />
    </extensions>
  </wpt>
  <wpt lat="36.96944443" lon="-1.39166667">
    <name>AL143 Huecija</name>
    <sym>Circle</sym>
    <extensions>
      <identifier />
      <category />
    </extensions>
  </wpt>
  <wpt lat="37.39249999" lon="-0.05888890">
    <name>AL144 Huercal Overa</name>
    <sym>Circle</sym>
    <extensions>
      <identifier />
      <category />
    </extensions>
  </wpt>
  <wpt lat="36.88749999" lon="-1.56277779">
    <name>AL145 Huercal de Almeria</name>
    <sym>Circle</sym>
    <extensions>
      <identifier />
      <category />
    </extensions>
  </wpt>
  <wpt lat="36.98722221" lon="-1.36138890">
    <name>AL146 Illar</name>
    <sym>Circle</sym>
    <extensions>
      <identifier />
      <category />
    </extensions>
  </wpt>
  <wpt lat="36.99749999" lon="-1.34027778">
    <name>AL147 Instincion</name>
    <sym>Circle</sym>
    <extensions>
      <identifier />
      <category />
    </extensions>
  </wpt>
  <wpt lat="37.42277777" lon="-1.43833334">
    <name>AL148 Jauca Alta</name>
    <sym>Circle</sym>
    <extensions>
      <identifier />
      <category />
    </extensions>
  </wpt>
  <wpt lat="37.21972221" lon="-1.83333334">
    <name>AL149 Jauro</name>
    <sym>Circle</sym>
    <extensions>
      <identifier />
      <category />
    </extensions>
  </wpt>
  <wpt lat="36.75250000" lon="-2.90611112">
    <name>AL150 La Alcazaba</name>
    <sym>Circle</sym>
    <extensions>
      <identifier />
      <category />
    </extensions>
  </wpt>
  <wpt lat="37.70777777" lon="-1.75333334">
    <name>AL151 La Alfahuara</name>
    <sym>Circle</sym>
    <extensions>
      <identifier />
      <category />
    </extensions>
  </wpt>
  <wpt lat="37.35583333" lon="-1.95916667">
    <name>AL152 La Alfoquia</name>
    <sym>Circle</sym>
    <extensions>
      <identifier />
      <category />
    </extensions>
  </wpt>
  <wpt lat="36.77916666" lon="-2.76666667">
    <name>AL153 La Alqueria</name>
    <sym>Circle</sym>
    <extensions>
      <identifier />
      <category />
    </extensions>
  </wpt>
  <wpt lat="37.56833332" lon="-1.67361112">
    <name>AL154 La Aspilla</name>
    <sym>Circle</sym>
    <extensions>
      <identifier />
      <category />
    </extensions>
  </wpt>
  <wpt lat="36.98999999" lon="-1.26527779">
    <name>AL155 La Barriada de Alcora</name>
    <sym>Circle</sym>
    <extensions>
      <identifier />
      <category />
    </extensions>
  </wpt>
  <wpt lat="37.79777777" lon="-1.71527779">
    <name>AL156 La Cañada de Cañepla</name>
    <sym>Circle</sym>
    <extensions>
      <identifier />
      <category />
    </extensions>
  </wpt>
  <wpt lat="36.84444444" lon="-1.59194445">
    <name>AL157 La Cañada de San Urbano</name>
    <sym>Circle</sym>
    <extensions>
      <identifier />
      <category />
    </extensions>
  </wpt>
  <wpt lat="37.09277777" lon="-0.05833334">
    <name>AL158 La Carrasca</name>
    <sym>Circle</sym>
    <extensions>
      <identifier />
      <category />
    </extensions>
  </wpt>
  <wpt lat="37.03777777" lon="-0.04166667">
    <name>AL159 La Cueva del Pájaro</name>
    <sym>Circle</sym>
    <extensions>
      <identifier />
      <category />
    </extensions>
  </wpt>
  <wpt lat="37.11083333" lon="-1.40916667">
    <name>AL160 La Estación</name>
    <sym>Circle</sym>
    <extensions>
      <identifier />
      <category />
    </extensions>
  </wpt>
  <wpt lat="37.18611110" lon="-1.16111112">
    <name>AL161 La Estación</name>
    <sym>Circle</sym>
    <extensions>
      <identifier />
      <category />
    </extensions>
  </wpt>
  <wpt lat="36.74499999" lon="-1.79527778">
    <name>AL162 La Fabriquilla</name>
    <sym>Circle</sym>
    <extensions>
      <identifier />
      <category />
    </extensions>
  </wpt>
  <wpt lat="37.51638888" lon="-0.04527778">
    <name>AL163 La Fuensanta</name>
    <sym>Circle</sym>
    <extensions>
      <identifier />
      <category />
    </extensions>
  </wpt>
  <wpt lat="36.76333333" lon="-2.94166667">
    <name>AL164 La Fuente</name>
    <sym>Circle</sym>
    <extensions>
      <identifier />
      <category />
    </extensions>
  </wpt>
  <wpt lat="37.39472221" lon="-0.25000000">
    <name>AL165 La Fuente</name>
    <sym>Circle</sym>
    <extensions>
      <identifier />
      <category />
    </extensions>
  </wpt>
  <wpt lat="37.17138888" lon="-1.75888890">
    <name>AL166 La Fuente de la Higuera</name>
    <sym>Circle</sym>
    <extensions>
      <identifier />
      <category />
    </extensions>
  </wpt>
  <wpt lat="37.48749999" lon="-1.63361112">
    <name>AL167 La Fuente del Negro</name>
    <sym>Circle</sym>
    <extensions>
      <identifier />
      <category />
    </extensions>
  </wpt>
  <wpt lat="36.83111110" lon="-1.48638889">
    <name>AL168 La Garrofa</name>
    <sym>Circle</sym>
    <extensions>
      <identifier />
      <category />
    </extensions>
  </wpt>
  <wpt lat="37.04749999" lon="-1.85000000">
    <name>AL169 La Herradura</name>
    <sym>Circle</sym>
    <extensions>
      <identifier />
      <category />
    </extensions>
  </wpt>
  <wpt lat="37.47416666" lon="-1.91666667">
    <name>AL170 La Hoya</name>
    <sym>Circle</sym>
    <extensions>
      <identifier />
      <category />
    </extensions>
  </wpt>
  <wpt lat="37.11694443" lon="-1.26666667">
    <name>AL171 La Huelga</name>
    <sym>Circle</sym>
    <extensions>
      <identifier />
      <category />
    </extensions>
  </wpt>
  <wpt lat="36.82416666" lon="-1.95583334">
    <name>AL172 La Isleta</name>
    <sym>Circle</sym>
    <extensions>
      <identifier />
      <category />
    </extensions>
  </wpt>
  <wpt lat="37.01749999" lon="-0.07888890">
    <name>AL173 La Islica</name>
    <sym>Circle</sym>
    <extensions>
      <identifier />
      <category />
    </extensions>
  </wpt>
  <wpt lat="37.16555555" lon="-1.89111112">
    <name>AL174 La Mela</name>
    <sym>Circle</sym>
    <extensions>
      <identifier />
      <category />
    </extensions>
  </wpt>
  <wpt lat="36.75666666" lon="-1.31833334">
    <name>AL175 La Mojonera</name>
    <sym>Circle</sym>
    <extensions>
      <identifier />
      <category />
    </extensions>
  </wpt>
  <wpt lat="37.28833333" lon="-0.20750001">
    <name>AL176 La Muleria</name>
    <sym>Circle</sym>
    <extensions>
      <identifier />
      <category />
    </extensions>
  </wpt>
  <wpt lat="37.42249999" lon="-0.00416667">
    <name>AL177 La Parata</name>
    <sym>Circle</sym>
    <extensions>
      <identifier />
      <category />
    </extensions>
  </wpt>
  <wpt lat="36.78388888" lon="-2.93305557">
    <name>AL178 La Parra</name>
    <sym>Circle</sym>
    <extensions>
      <identifier />
      <category />
    </extensions>
  </wpt>
  <wpt lat="36.86638888" lon="-1.02833334">
    <name>AL179 La Peñarrodada</name>
    <sym>Circle</sym>
    <extensions>
      <identifier />
      <category />
    </extensions>
  </wpt>
  <wpt lat="37.43944444" lon="-1.26666667">
    <name>AL180 La Perulera</name>
    <sym>Circle</sym>
    <extensions>
      <identifier />
      <category />
    </extensions>
  </wpt>
  <wpt lat="37.29277777" lon="-0.13388889">
    <name>AL181 La Portilla</name>
    <sym>Circle</sym>
    <extensions>
      <identifier />
      <category />
    </extensions>
  </wpt>
  <wpt lat="37.26583333" lon="-1.95444445">
    <name>AL182 La Rambla Algibe</name>
    <sym>Circle</sym>
    <extensions>
      <identifier />
      <category />
    </extensions>
  </wpt>
  <wpt lat="37.03499999" lon="-1.82694446">
    <name>AL183 La Rambla Honda</name>
    <sym>Circle</sym>
    <extensions>
      <identifier />
      <category />
    </extensions>
  </wpt>
  <wpt lat="36.79916666" lon="-1.40750001">
    <name>AL184 La Ribera de la Algaida</name>
    <sym>Circle</sym>
    <extensions>
      <identifier />
      <category />
    </extensions>
  </wpt>
  <wpt lat="37.17722221" lon="-0.01194445">
    <name>AL185 La Serena</name>
    <sym>Circle</sym>
    <extensions>
      <identifier />
      <category />
    </extensions>
  </wpt>
  <wpt lat="37.54666666" lon="-1.77027779">
    <name>AL186 La Yegua Baja</name>
    <sym>Circle</sym>
    <extensions>
      <identifier />
      <category />
    </extensions>
  </wpt>
  <wpt lat="37.29861110" lon="-1.67222223">
    <name>AL187 Laroya</name>
    <sym>Circle</sym>
    <extensions>
      <identifier />
      <category />
    </extensions>
  </wpt>
  <wpt lat="37.09249999" lon="-1.41694446">
    <name>AL188 Las Alcubillas</name>
    <sym>Circle</sym>
    <extensions>
      <identifier />
      <category />
    </extensions>
  </wpt>
  <wpt lat="37.14916666" lon="-1.46305556">
    <name>AL189 Las Aneas</name>
    <sym>Circle</sym>
    <extensions>
      <identifier />
      <category />
    </extensions>
  </wpt>
  <wpt lat="37.54388888" lon="-1.13333334">
    <name>AL190 Las Cabreras</name>
    <sym>Circle</sym>
    <extensions>
      <identifier />
      <category />
    </extensions>
  </wpt>
  <wpt lat="37.28916666" lon="-1.37250001">
    <name>AL191 Las Carboneras</name>
    <sym>Circle</sym>
    <extensions>
      <identifier />
      <category />
    </extensions>
  </wpt>
  <wpt lat="37.63805555" lon="-1.82527779">
    <name>AL192 Las Casas</name>
    <sym>Circle</sym>
    <extensions>
      <identifier />
      <category />
    </extensions>
  </wpt>
  <wpt lat="37.89472221" lon="-1.78111112">
    <name>AL193 Las Covatillas</name>
    <sym>Circle</sym>
    <extensions>
      <identifier />
      <category />
    </extensions>
  </wpt>
  <wpt lat="36.89388888" lon="-1.72027779">
    <name>AL194 Las Cuevas de los Medinas</name>
    <sym>Circle</sym>
    <extensions>
      <identifier />
      <category />
    </extensions>
  </wpt>
  <wpt lat="36.92944443" lon="-1.70305556">
    <name>AL195 Las Cuevas de los Ubedas</name>
    <sym>Circle</sym>
    <extensions>
      <identifier />
      <category />
    </extensions>
  </wpt>
  <wpt lat="37.27416666" lon="-0.16000001">
    <name>AL196 Las Cunas</name>
    <sym>Circle</sym>
    <extensions>
      <identifier />
      <category />
    </extensions>
  </wpt>
  <wpt lat="37.30694444" lon="-0.12833334">
    <name>AL197 Las Cupillas</name>
    <sym>Circle</sym>
    <extensions>
      <identifier />
      <category />
    </extensions>
  </wpt>
  <wpt lat="37.10527777" lon="-1.97333334">
    <name>AL198 Las Herrerias</name>
    <sym>Circle</sym>
    <extensions>
      <identifier />
      <category />
    </extensions>
  </wpt>
  <wpt lat="37.27499999" lon="-0.22083334">
    <name>AL199 Las Herrerias</name>
    <sym>Circle</sym>
    <extensions>
      <identifier />
      <category />
    </extensions>
  </wpt>
  <wpt lat="37.30944444" lon="-1.90777779">
    <name>AL200 Las Huevanillas</name>
    <sym>Circle</sym>
    <extensions>
      <identifier />
      <category />
    </extensions>
  </wpt>
  <wpt lat="37.28972221" lon="-1.48500000">
    <name>AL201 Las Menas</name>
    <sym>Circle</sym>
    <extensions>
      <identifier />
      <category />
    </extensions>
  </wpt>
  <wpt lat="37.35416666" lon="-0.00611112">
    <name>AL202 Las Menas</name>
    <sym>Circle</sym>
    <extensions>
      <identifier />
      <category />
    </extensions>
  </wpt>
  <wpt lat="36.92805554" lon="-1.46250001">
    <name>AL203 Las Minas</name>
    <sym>Circle</sym>
    <extensions>
      <identifier />
      <category />
    </extensions>
  </wpt>
  <wpt lat="36.88166666" lon="-1.65000000">
    <name>AL204 Las Negras</name>
    <sym>Circle</sym>
    <extensions>
      <identifier />
      <category />
    </extensions>
  </wpt>
  <wpt lat="36.75972222" lon="-1.26055556">
    <name>AL205 Las Norias</name>
    <sym>Circle</sym>
    <extensions>
      <identifier />
      <category />
    </extensions>
  </wpt>
  <wpt lat="37.46222222" lon="-0.14333334">
    <name>AL206 Las Norias</name>
    <sym>Circle</sym>
    <extensions>
      <identifier />
      <category />
    </extensions>
  </wpt>
  <wpt lat="37.46999999" lon="-1.85083334">
    <name>AL207 Las Pocicas</name>
    <sym>Circle</sym>
    <extensions>
      <identifier />
      <category />
    </extensions>
  </wpt>
  <wpt lat="36.73722221" lon="-1.35972223">
    <name>AL208 Las Salinas</name>
    <sym>Circle</sym>
    <extensions>
      <identifier />
      <category />
    </extensions>
  </wpt>
  <wpt lat="36.99499999" lon="-1.10861112">
    <name>AL209 Laujar de Andarax</name>
    <sym>Circle</sym>
    <extensions>
      <identifier />
      <category />
    </extensions>
  </wpt>
  <wpt lat="37.29722221" lon="-1.78111112">
    <name>AL210 Lijar</name>
    <sym>Circle</sym>
    <extensions>
      <identifier />
      <category />
    </extensions>
  </wpt>
  <wpt lat="37.43416666" lon="-1.82555557">
    <name>AL211 Llano del Espino</name>
    <sym>Circle</sym>
    <extensions>
      <identifier />
      <category />
    </extensions>
  </wpt>
  <wpt lat="37.42805554" lon="-1.83722223">
    <name>AL212 Llanos de los Olleres</name>
    <sym>Circle</sym>
    <extensions>
      <identifier />
      <category />
    </extensions>
  </wpt>
  <wpt lat="36.76749999" lon="-1.23972223">
    <name>AL213 Loma del Bosque</name>
    <sym>Circle</sym>
    <extensions>
      <identifier />
      <category />
    </extensions>
  </wpt>
  <wpt lat="37.54388888" lon="-1.67305557">
    <name>AL214 Los Alamos</name>
    <sym>Circle</sym>
    <extensions>
      <identifier />
      <category />
    </extensions>
  </wpt>
  <wpt lat="36.85111111" lon="-1.87888890">
    <name>AL215 Los Albaricoques</name>
    <sym>Circle</sym>
    <extensions>
      <identifier />
      <category />
    </extensions>
  </wpt>
  <wpt lat="37.14694444" lon="-1.95444445">
    <name>AL216 Los Castaños</name>
    <sym>Circle</sym>
    <extensions>
      <identifier />
      <category />
    </extensions>
  </wpt>
  <wpt lat="37.53611110" lon="-1.79805556">
    <name>AL217 Los Cerricos</name>
    <sym>Circle</sym>
    <extensions>
      <identifier />
      <category />
    </extensions>
  </wpt>
  <wpt lat="37.46944443" lon="-1.79222223">
    <name>AL218 Los Chacones</name>
    <sym>Circle</sym>
    <extensions>
      <identifier />
      <category />
    </extensions>
  </wpt>
  <wpt lat="36.82361110" lon="-2.92666668">
    <name>AL219 Los Clementes</name>
    <sym>Circle</sym>
    <extensions>
      <identifier />
      <category />
    </extensions>
  </wpt>
  <wpt lat="36.76694443" lon="-2.88500000">
    <name>AL220 Los Escuderos</name>
    <sym>Circle</sym>
    <extensions>
      <identifier />
      <category />
    </extensions>
  </wpt>
  <wpt lat="36.81777777" lon="-1.94777778">
    <name>AL221 Los Escullos</name>
    <sym>Circle</sym>
    <extensions>
      <identifier />
      <category />
    </extensions>
  </wpt>
  <wpt lat="37.17166666" lon="-0.06055556">
    <name>AL222 Los Gallardos</name>
    <sym>Circle</sym>
    <extensions>
      <identifier />
      <category />
    </extensions>
  </wpt>
  <wpt lat="37.48555555" lon="-1.96805557">
    <name>AL223 Los Gateros</name>
    <sym>Circle</sym>
    <extensions>
      <identifier />
      <category />
    </extensions>
  </wpt>
  <wpt lat="37.55416666" lon="-0.04388889">
    <name>AL224 Los Gazquez</name>
    <sym>Circle</sym>
    <extensions>
      <identifier />
      <category />
    </extensions>
  </wpt>
  <wpt lat="37.13472221" lon="-1.86666667">
    <name>AL225 Los Giles</name>
    <sym>Circle</sym>
    <extensions>
      <identifier />
      <category />
    </extensions>
  </wpt>
  <wpt lat="37.17222221" lon="-1.95444445">
    <name>AL226 Los Javielos</name>
    <sym>Circle</sym>
    <extensions>
      <identifier />
      <category />
    </extensions>
  </wpt>
  <wpt lat="36.87361110" lon="-1.88166668">
    <name>AL227 Los Jimenez</name>
    <sym>Circle</sym>
    <extensions>
      <identifier />
      <category />
    </extensions>
  </wpt>
  <wpt lat="37.30944444" lon="-0.23555556">
    <name>AL228 Los Lobos</name>
    <sym>Circle</sym>
    <extensions>
      <identifier />
      <category />
    </extensions>
  </wpt>
  <wpt lat="36.87611110" lon="-1.89777778">
    <name>AL229 Los Martinez</name>
    <sym>Circle</sym>
    <extensions>
      <identifier />
      <category />
    </extensions>
  </wpt>
  <wpt lat="37.27499999" lon="-1.86888890">
    <name>AL230 Los Molinas</name>
    <sym>Circle</sym>
    <extensions>
      <identifier />
      <category />
    </extensions>
  </wpt>
  <wpt lat="36.78916666" lon="-2.89138889">
    <name>AL231 Los Moras</name>
    <sym>Circle</sym>
    <extensions>
      <identifier />
      <category />
    </extensions>
  </wpt>
  <wpt lat="36.88833333" lon="-1.81777779">
    <name>AL232 Los Nietos</name>
    <sym>Circle</sym>
    <extensions>
      <identifier />
      <category />
    </extensions>
  </wpt>
  <wpt lat="37.50333333" lon="-1.94000000">
    <name>AL233 Los Pardos</name>
    <sym>Circle</sym>
    <extensions>
      <identifier />
      <category />
    </extensions>
  </wpt>
  <wpt lat="37.09222221" lon="-1.94888889">
    <name>AL234 Los Perales</name>
    <sym>Circle</sym>
    <extensions>
      <identifier />
      <category />
    </extensions>
  </wpt>
  <wpt lat="36.80638888" lon="-2.92361112">
    <name>AL235 Los Perez</name>
    <sym>Circle</sym>
    <extensions>
      <identifier />
      <category />
    </extensions>
  </wpt>
  <wpt lat="37.26111111" lon="-1.39388889">
    <name>AL236 Los Santos</name>
    <sym>Circle</sym>
    <extensions>
      <identifier />
      <category />
    </extensions>
  </wpt>
  <wpt lat="37.59777777" lon="-1.95250001">
    <name>AL237 Los Tonosas</name>
    <sym>Circle</sym>
    <extensions>
      <identifier />
      <category />
    </extensions>
  </wpt>
  <wpt lat="37.28416666" lon="-1.86361112">
    <name>AL238 Los Utreras</name>
    <sym>Circle</sym>
    <extensions>
      <identifier />
      <category />
    </extensions>
  </wpt>
  <wpt lat="37.21777777" lon="-1.93416667">
    <name>AL239 Lubrin</name>
    <sym>Circle</sym>
    <extensions>
      <identifier />
      <category />
    </extensions>
  </wpt>
  <wpt lat="36.94444444" lon="-2.97666668">
    <name>AL240 Lucainena</name>
    <sym>Circle</sym>
    <extensions>
      <identifier />
      <category />
    </extensions>
  </wpt>
  <wpt lat="37.04361110" lon="-1.79972223">
    <name>AL241 Lucainena de las Torres</name>
    <sym>Circle</sym>
    <extensions>
      <identifier />
      <category />
    </extensions>
  </wpt>
  <wpt lat="37.40194444" lon="-1.57722223">
    <name>AL242 Lucar</name>
    <sym>Circle</sym>
    <extensions>
      <identifier />
      <category />
    </extensions>
  </wpt>
  <wpt lat="37.33555555" lon="-1.69833334">
    <name>AL243 Macael</name>
    <sym>Circle</sym>
    <extensions>
      <identifier />
      <category />
    </extensions>
  </wpt>
  <wpt lat="37.71083333" lon="-1.83527778">
    <name>AL244 Maria</name>
    <sym>Circle</sym>
    <extensions>
      <identifier />
      <category />
    </extensions>
  </wpt>
  <wpt lat="36.93999999" lon="-1.55138890">
    <name>AL245 Marraque</name>
    <sym>Circle</sym>
    <extensions>
      <identifier />
      <category />
    </extensions>
  </wpt>
  <wpt lat="36.71833332" lon="-1.15805556">
    <name>AL246 Matagorda</name>
    <sym>Circle</sym>
    <extensions>
      <identifier />
      <category />
    </extensions>
  </wpt>
  <wpt lat="37.14138888" lon="-0.15027779">
    <name>AL247 Mojacar</name>
    <sym>Circle</sym>
    <extensions>
      <identifier />
      <category />
    </extensions>
  </wpt>
  <wpt lat="36.73666666" lon="-1.85027779">
    <name>AL248 Monsul</name>
    <sym>Circle</sym>
    <extensions>
      <identifier />
      <category />
    </extensions>
  </wpt>
  <wpt lat="37.10833333" lon="-1.35055556">
    <name>AL249 Nacimiento</name>
    <sym>Circle</sym>
    <extensions>
      <identifier />
      <category />
    </extensions>
  </wpt>
  <wpt lat="36.96777777" lon="-1.79472223">
    <name>AL250 Nijar</name>
    <sym>Circle</sym>
    <extensions>
      <identifier />
      <category />
    </extensions>
  </wpt>
  <wpt lat="37.13027777" lon="-1.27222223">
    <name>AL251 Ocaña</name>
    <sym>Circle</sym>
    <extensions>
      <identifier />
      <category />
    </extensions>
  </wpt>
  <wpt lat="37.04055555" lon="-1.25527779">
    <name>AL252 Ohanes</name>
    <sym>Circle</sym>
    <extensions>
      <identifier />
      <category />
    </extensions>
  </wpt>
  <wpt lat="37.17499999" lon="-1.52388890">
    <name>AL253 Olula de Castro</name>
    <sym>Circle</sym>
    <extensions>
      <identifier />
      <category />
    </extensions>
  </wpt>
  <wpt lat="37.35944444" lon="-1.70194445">
    <name>AL254 Olula del Rio</name>
    <sym>Circle</sym>
    <extensions>
      <identifier />
      <category />
    </extensions>
  </wpt>
  <wpt lat="37.48527777" lon="-1.71527779">
    <name>AL255 Oria</name>
    <sym>Circle</sym>
    <extensions>
      <identifier />
      <category />
    </extensions>
  </wpt>
  <wpt lat="36.99944444" lon="-1.22777779">
    <name>AL256 Padules</name>
    <sym>Circle</sym>
    <extensions>
      <identifier />
      <category />
    </extensions>
  </wpt>
  <wpt lat="37.24666666" lon="-0.20472223">
    <name>AL257 Palomares</name>
    <sym>Circle</sym>
    <extensions>
      <identifier />
      <category />
    </extensions>
  </wpt>
  <wpt lat="36.78722221" lon="-1.16694446">
    <name>AL258 Pampanico</name>
    <sym>Circle</sym>
    <extensions>
      <identifier />
      <category />
    </extensions>
  </wpt>
  <wpt lat="37.40777777" lon="-1.77222223">
    <name>AL259 Partaloa</name>
    <sym>Circle</sym>
    <extensions>
      <identifier />
      <category />
    </extensions>
  </wpt>
  <wpt lat="37.02388888" lon="-1.04750000">
    <name>AL260 Paterna del Rio</name>
    <sym>Circle</sym>
    <extensions>
      <identifier />
      <category />
    </extensions>
  </wpt>
  <wpt lat="36.96138888" lon="-1.51027779">
    <name>AL261 Paulenca</name>
    <sym>Circle</sym>
    <extensions>
      <identifier />
      <category />
    </extensions>
  </wpt>
  <wpt lat="36.91749999" lon="-1.55638890">
    <name>AL262 Pechina</name>
    <sym>Circle</sym>
    <extensions>
      <identifier />
      <category />
    </extensions>
  </wpt>
  <wpt lat="37.39583333" lon="-1.39027778">
    <name>AL263 Pilacon</name>
    <sym>Circle</sym>
    <extensions>
      <identifier />
      <category />
    </extensions>
  </wpt>
  <wpt lat="37.39305555" lon="-0.30888890">
    <name>AL264 Pilar de Jaravia</name>
    <sym>Circle</sym>
    <extensions>
      <identifier />
      <category />
    </extensions>
  </wpt>
  <wpt lat="37.02777777" lon="-1.92055557">
    <name>AL265 Polopos</name>
    <sym>Circle</sym>
    <extensions>
      <identifier />
      <category />
    </extensions>
  </wpt>
  <wpt lat="37.44388888" lon="-0.26305556">
    <name>AL266 Pozo de la Higuera</name>
    <sym>Circle</sym>
    <extensions>
      <identifier />
      <category />
    </extensions>
  </wpt>
  <wpt lat="36.79972221" lon="-1.34611112">
    <name>AL267 Puebla de Vicar</name>
    <sym>Circle</sym>
    <extensions>
      <identifier />
      <category />
    </extensions>
  </wpt>
  <wpt lat="36.91194444" lon="-1.86750001">
    <name>AL268 Pueblo Blanco</name>
    <sym>Circle</sym>
    <extensions>
      <identifier />
      <category />
    </extensions>
  </wpt>
  <wpt lat="37.20472222" lon="-0.18666667">
    <name>AL269 Puerto del Rey</name>
    <sym>Circle</sym>
    <extensions>
      <identifier />
      <category />
    </extensions>
  </wpt>
  <wpt lat="37.41333333" lon="-0.25500001">
    <name>AL270 Pulpi</name>
    <sym>Circle</sym>
    <extensions>
      <identifier />
      <category />
    </extensions>
  </wpt>
  <wpt lat="37.35055555" lon="-1.63861112">
    <name>AL271 Purchena</name>
    <sym>Circle</sym>
    <extensions>
      <identifier />
      <category />
    </extensions>
  </wpt>
  <wpt lat="36.99833333" lon="-1.31722223">
    <name>AL272 Ragol</name>
    <sym>Circle</sym>
    <extensions>
      <identifier />
      <category />
    </extensions>
  </wpt>
  <wpt lat="36.81472222" lon="-1.76305556">
    <name>AL273 Rambla de Morales</name>
    <sym>Circle</sym>
    <extensions>
      <identifier />
      <category />
    </extensions>
  </wpt>
  <wpt lat="36.94749999" lon="-1.53583334">
    <name>AL274 Rioja</name>
    <sym>Circle</sym>
    <extensions>
      <identifier />
      <category />
    </extensions>
  </wpt>
  <wpt lat="36.84916666" lon="-1.95833334">
    <name>AL275 Rodalquilar</name>
    <sym>Circle</sym>
    <extensions>
      <identifier />
      <category />
    </extensions>
  </wpt>
  <wpt lat="36.76583333" lon="-1.38361112">
    <name>AL276 Roquetas de Mar</name>
    <sym>Circle</sym>
    <extensions>
      <identifier />
      <category />
    </extensions>
  </wpt>
  <wpt lat="36.96444444" lon="-1.90388890">
    <name>AL277 Saladar Y Leche</name>
    <sym>Circle</sym>
    <extensions>
      <identifier />
      <category />
    </extensions>
  </wpt>
  <wpt lat="36.71722221" lon="-1.31083334">
    <name>AL278 San Agustin</name>
    <sym>Circle</sym>
    <extensions>
      <identifier />
      <category />
    </extensions>
  </wpt>
  <wpt lat="37.42444443" lon="-0.11916668">
    <name>AL279 San Francisco</name>
    <sym>Circle</sym>
    <extensions>
      <identifier />
      <category />
    </extensions>
  </wpt>
  <wpt lat="36.90777777" lon="-1.82527779">
    <name>AL280 San Isidro de Nijar</name>
    <sym>Circle</sym>
    <extensions>
      <identifier />
      <category />
    </extensions>
  </wpt>
  <wpt lat="36.76694443" lon="-1.88972223">
    <name>AL281 San Jose</name>
    <sym>Circle</sym>
    <extensions>
      <identifier />
      <category />
    </extensions>
  </wpt>
  <wpt lat="37.36083333" lon="-0.34555556">
    <name>AL282 San Juan de los Terreros</name>
    <sym>Circle</sym>
    <extensions>
      <identifier />
      <category />
    </extensions>
  </wpt>
  <wpt lat="36.84055555" lon="-1.03166668">
    <name>AL283 San Roque</name>
    <sym>Circle</sym>
    <extensions>
      <identifier />
      <category />
    </extensions>
  </wpt>
  <wpt lat="37.35444444" lon="-0.03888889">
    <name>AL284 Santa Barbara</name>
    <sym>Circle</sym>
    <extensions>
      <identifier />
      <category />
    </extensions>
  </wpt>
  <wpt lat="37.01944443" lon="-1.40055556">
    <name>AL285 Santa Cruz de Marchena</name>
    <sym>Circle</sym>
    <extensions>
      <identifier />
      <category />
    </extensions>
  </wpt>
  <wpt lat="36.97583332" lon="-1.46777779">
    <name>AL286 Santa Fe de Mondujar</name>
    <sym>Circle</sym>
    <extensions>
      <identifier />
      <category />
    </extensions>
  </wpt>
  <wpt lat="37.46888888" lon="-0.01361112">
    <name>AL287 Santa Maria de Nieva</name>
    <sym>Circle</sym>
    <extensions>
      <identifier />
      <category />
    </extensions>
  </wpt>
  <wpt lat="36.78138888" lon="-1.22305557">
    <name>AL288 Santa Maria del Aguila</name>
    <sym>Circle</sym>
    <extensions>
      <identifier />
      <category />
    </extensions>
  </wpt>
  <wpt lat="37.09972221" lon="-1.27527779">
    <name>AL289 Santillana</name>
    <sym>Circle</sym>
    <extensions>
      <identifier />
      <category />
    </extensions>
  </wpt>
  <wpt lat="37.45777777" lon="-1.96111112">
    <name>AL290 Santopetar</name>
    <sym>Circle</sym>
    <extensions>
      <identifier />
      <category />
    </extensions>
  </wpt>
  <wpt lat="37.20611111" lon="-1.65305556">
    <name>AL291 Senes</name>
    <sym>Circle</sym>
    <extensions>
      <identifier />
      <category />
    </extensions>
  </wpt>
  <wpt lat="37.34722221" lon="-1.49000000">
    <name>AL292 Seron</name>
    <sym>Circle</sym>
    <extensions>
      <identifier />
      <category />
    </extensions>
  </wpt>
  <wpt lat="37.32277777" lon="-1.60333334">
    <name>AL293 Sierro</name>
    <sym>Circle</sym>
    <extensions>
      <identifier />
      <category />
    </extensions>
  </wpt>
  <wpt lat="37.39388888" lon="-1.61166667">
    <name>AL294 Somontin</name>
    <sym>Circle</sym>
    <extensions>
      <identifier />
      <category />
    </extensions>
  </wpt>
  <wpt lat="37.09944444" lon="-1.87722223">
    <name>AL295 Sorbas</name>
    <sym>Circle</sym>
    <extensions>
      <identifier />
      <category />
    </extensions>
  </wpt>
  <wpt lat="37.34222221" lon="-1.60861112">
    <name>AL296 Sufli</name>
    <sym>Circle</sym>
    <extensions>
      <identifier />
      <category />
    </extensions>
  </wpt>
  <wpt lat="37.05361111" lon="-1.61000001">
    <name>AL297 Tabernas</name>
    <sym>Circle</sym>
    <extensions>
      <identifier />
      <category />
    </extensions>
  </wpt>
  <wpt lat="37.46944443" lon="-1.92305557">
    <name>AL298 Taberno</name>
    <sym>Circle</sym>
    <extensions>
      <identifier />
      <category />
    </extensions>
  </wpt>
  <wpt lat="37.22944443" lon="-1.71555556">
    <name>AL299 Tahal</name>
    <sym>Circle</sym>
    <extensions>
      <identifier />
      <category />
    </extensions>
  </wpt>
  <wpt lat="36.76666666" lon="-1.13722223">
    <name>AL300 Tarambana</name>
    <sym>Circle</sym>
    <extensions>
      <identifier />
      <category />
    </extensions>
  </wpt>
  <wpt lat="36.98944444" lon="-1.40277779">
    <name>AL301 Terque</name>
    <sym>Circle</sym>
    <extensions>
      <identifier />
      <category />
    </extensions>
  </wpt>
  <wpt lat="37.06944443" lon="-1.26222223">
    <name>AL302 Tices</name>
    <sym>Circle</sym>
    <extensions>
      <identifier />
      <category />
    </extensions>
  </wpt>
  <wpt lat="37.34777777" lon="-1.56333334">
    <name>AL303 Tijola</name>
    <sym>Circle</sym>
    <extensions>
      <identifier />
      <category />
    </extensions>
  </wpt>
  <wpt lat="37.86277777" lon="-1.77000001">
    <name>AL304 Toperas</name>
    <sym>Circle</sym>
    <extensions>
      <identifier />
      <category />
    </extensions>
  </wpt>
  <wpt lat="37.15500000" lon="-0.10611112">
    <name>AL305 Turre</name>
    <sym>Circle</sym>
    <extensions>
      <identifier />
      <category />
    </extensions>
  </wpt>
  <wpt lat="37.03166666" lon="-1.73722223">
    <name>AL306 Turrillas</name>
    <sym>Circle</sym>
    <extensions>
      <identifier />
      <category />
    </extensions>
  </wpt>
  <wpt lat="37.46972221" lon="-0.08194446">
    <name>AL307 Urcal</name>
    <sym>Circle</sym>
    <extensions>
      <identifier />
      <category />
    </extensions>
  </wpt>
  <wpt lat="37.39749999" lon="-1.63583334">
    <name>AL308 Urracal</name>
    <sym>Circle</sym>
    <extensions>
      <identifier />
      <category />
    </extensions>
  </wpt>
  <wpt lat="37.19416666" lon="-1.59777778">
    <name>AL309 Velefique</name>
    <sym>Circle</sym>
    <extensions>
      <identifier />
      <category />
    </extensions>
  </wpt>
  <wpt lat="37.69194444" lon="-1.90444445">
    <name>AL310 Velez Blanco</name>
    <sym>Circle</sym>
    <extensions>
      <identifier />
      <category />
    </extensions>
  </wpt>
  <wpt lat="37.64944444" lon="-1.92805557">
    <name>AL311 Velez Rubio</name>
    <sym>Circle</sym>
    <extensions>
      <identifier />
      <category />
    </extensions>
  </wpt>
  <wpt lat="37.08638888" lon="-1.70861112">
    <name>AL312 Venta de los Yesos</name>
    <sym>Circle</sym>
    <extensions>
      <identifier />
      <category />
    </extensions>
  </wpt>
  <wpt lat="36.99416666" lon="-1.92444446">
    <name>AL313 Venta del Pobre</name>
    <sym>Circle</sym>
    <extensions>
      <identifier />
      <category />
    </extensions>
  </wpt>
  <wpt lat="36.79749999" lon="-1.30166667">
    <name>AL314 Venta del Viso</name>
    <sym>Circle</sym>
    <extensions>
      <identifier />
      <category />
    </extensions>
  </wpt>
  <wpt lat="36.86972221" lon="-1.61416667">
    <name>AL315 Venta Gaspar</name>
    <sym>Circle</sym>
    <extensions>
      <identifier />
      <category />
    </extensions>
  </wpt>
  <wpt lat="37.24861110" lon="-0.13000001">
    <name>AL316 Vera</name>
    <sym>Circle</sym>
    <extensions>
      <identifier />
      <category />
    </extensions>
  </wpt>
  <wpt lat="36.88972221" lon="-1.57388890">
    <name>AL317 Viator</name>
    <sym>Circle</sym>
    <extensions>
      <identifier />
      <category />
    </extensions>
  </wpt>
  <wpt lat="36.83555555" lon="-1.35722223">
    <name>AL318 Vicar</name>
    <sym>Circle</sym>
    <extensions>
      <identifier />
      <category />
    </extensions>
  </wpt>
  <wpt lat="37.25472222" lon="-0.23000001">
    <name>AL319 Villaricos</name>
    <sym>Circle</sym>
    <extensions>
      <identifier />
      <category />
    </extensions>
  </wpt>
  <wpt lat="37.34361110" lon="-1.96027779">
    <name>AL320 Zurgena</name>
    <sym>Circle</sym>
    <extensions>
      <identifier />
      <category />
    </extensions>
  </wpt>
  <wpt lat="36.46527777" lon="-4.27805557">
    <name>CA001 Alcalá de los Gazules</name>
    <sym>Circle</sym>
    <extensions>
      <identifier />
      <category />
    </extensions>
  </wpt>
  <wpt lat="36.90777777" lon="-4.82666668">
    <name>CA002 Alcalá del Valle</name>
    <sym>Circle</sym>
    <extensions>
      <identifier />
      <category />
    </extensions>
  </wpt>
  <wpt lat="36.65805555" lon="-4.34472223">
    <name>CA003 Algar</name>
    <sym>Circle</sym>
    <extensions>
      <identifier />
      <category />
    </extensions>
  </wpt>
  <wpt lat="36.13861110" lon="-4.54972223">
    <name>CA004 Algeciras</name>
    <sym>Circle</sym>
    <extensions>
      <identifier />
      <category />
    </extensions>
  </wpt>
  <wpt lat="36.88249999" lon="-4.59472223">
    <name>CA005 Algodonales</name>
    <sym>Circle</sym>
    <extensions>
      <identifier />
      <category />
    </extensions>
  </wpt>
  <wpt lat="36.75250000" lon="-4.19027778">
    <name>CA006 Arcos de la Frontera</name>
    <sym>Circle</sym>
    <extensions>
      <identifier />
      <category />
    </extensions>
  </wpt>
  <wpt lat="36.19611110" lon="-4.28361112">
    <name>CA007 Aziscar</name>
    <sym>Circle</sym>
    <extensions>
      <identifier />
      <category />
    </extensions>
  </wpt>
  <wpt lat="36.19388888" lon="-4.08055557">
    <name>CA008 Barbate</name>
    <sym>Circle</sym>
    <extensions>
      <identifier />
      <category />
    </extensions>
  </wpt>
  <wpt lat="36.25222222" lon="-4.11722223">
    <name>CA009 Barelo</name>
    <sym>Circle</sym>
    <extensions>
      <identifier />
      <category />
    </extensions>
  </wpt>
  <wpt lat="36.34027777" lon="-5.92694446">
    <name>CA010 Barrio Nuevo</name>
    <sym>Circle</sym>
    <extensions>
      <identifier />
      <category />
    </extensions>
  </wpt>
  <wpt lat="36.34638888" lon="-4.19111112">
    <name>CA011 Benalup</name>
    <sym>Circle</sym>
    <extensions>
      <identifier />
      <category />
    </extensions>
  </wpt>
  <wpt lat="36.76833332" lon="-4.53527778">
    <name>CA012 Benamahoma</name>
    <sym>Circle</sym>
    <extensions>
      <identifier />
      <category />
    </extensions>
  </wpt>
  <wpt lat="36.70694444" lon="-4.58000001">
    <name>CA013 Benaocaz</name>
    <sym>Circle</sym>
    <extensions>
      <identifier />
      <category />
    </extensions>
  </wpt>
  <wpt lat="36.80305555" lon="-5.66388890">
    <name>CA014 Bonanza</name>
    <sym>Circle</sym>
    <extensions>
      <identifier />
      <category />
    </extensions>
  </wpt>
  <wpt lat="36.82194443" lon="-4.25777779">
    <name>CA015 Bornos</name>
    <sym>Circle</sym>
    <extensions>
      <identifier />
      <category />
    </extensions>
  </wpt>
  <wpt lat="36.52305554" lon="-5.71750001">
    <name>CA016 Cádiz</name>
    <sym>Circle</sym>
    <extensions>
      <identifier />
      <category />
    </extensions>
  </wpt>
  <wpt lat="36.36055555" lon="-5.86694446">
    <name>CA017 Campano</name>
    <sym>Circle</sym>
    <extensions>
      <identifier />
      <category />
    </extensions>
  </wpt>
  <wpt lat="36.32388888" lon="-4.12222223">
    <name>CA018 Cantarranas</name>
    <sym>Circle</sym>
    <extensions>
      <identifier />
      <category />
    </extensions>
  </wpt>
  <wpt lat="36.29722221" lon="-5.92944446">
    <name>CA019 Casa de Postas</name>
    <sym>Circle</sym>
    <extensions>
      <identifier />
      <category />
    </extensions>
  </wpt>
  <wpt lat="36.92083332" lon="-4.20055556">
    <name>CA020 Caserío de San Bernardino</name>
    <sym>Circle</sym>
    <extensions>
      <identifier />
      <category />
    </extensions>
  </wpt>
  <wpt lat="36.28805555" lon="-4.58444445">
    <name>CA021 Castellar de la Frontera</name>
    <sym>Circle</sym>
    <extensions>
      <identifier />
      <category />
    </extensions>
  </wpt>
  <wpt lat="36.32694443" lon="-4.54888889">
    <name>CA022 Castillo de Castellar</name>
    <sym>Circle</sym>
    <extensions>
      <identifier />
      <category />
    </extensions>
  </wpt>
  <wpt lat="36.42249999" lon="-5.85333334">
    <name>CA023 Chiclana</name>
    <sym>Circle</sym>
    <extensions>
      <identifier />
      <category />
    </extensions>
  </wpt>
  <wpt lat="36.73555555" lon="-5.57083334">
    <name>CA024 Chipiona</name>
    <sym>Circle</sym>
    <extensions>
      <identifier />
      <category />
    </extensions>
  </wpt>
  <wpt lat="36.27805554" lon="-5.91388890">
    <name>CA025 Conil de la Frontera</name>
    <sym>Circle</sym>
    <extensions>
      <identifier />
      <category />
    </extensions>
  </wpt>
  <wpt lat="36.84749999" lon="-5.88222223">
    <name>CA026 Cortijo Cápita</name>
    <sym>Circle</sym>
    <extensions>
      <identifier />
      <category />
    </extensions>
  </wpt>
  <wpt lat="36.24388888" lon="-4.62444446">
    <name>CA027 Cortijo de Albalate</name>
    <sym>Circle</sym>
    <extensions>
      <identifier />
      <category />
    </extensions>
  </wpt>
  <wpt lat="36.73583333" lon="-5.71055556">
    <name>CA028 Cortijo de Alíjar</name>
    <sym>Circle</sym>
    <extensions>
      <identifier />
      <category />
    </extensions>
  </wpt>
  <wpt lat="36.97138888" lon="-4.34527778">
    <name>CA029 Cortijo de la Chirigota</name>
    <sym>Circle</sym>
    <extensions>
      <identifier />
      <category />
    </extensions>
  </wpt>
  <wpt lat="36.94111110" lon="-4.37861112">
    <name>CA030 Cortijo de los Pozuelos</name>
    <sym>Circle</sym>
    <extensions>
      <identifier />
      <category />
    </extensions>
  </wpt>
  <wpt lat="36.89055555" lon="-4.29277778">
    <name>CA031 Cortijo de Puertollano</name>
    <sym>Circle</sym>
    <extensions>
      <identifier />
      <category />
    </extensions>
  </wpt>
  <wpt lat="36.85388888" lon="-4.44055556">
    <name>CA032 Cortijo de Tierras Nuevas</name>
    <sym>Circle</sym>
    <extensions>
      <identifier />
      <category />
    </extensions>
  </wpt>
  <wpt lat="36.64194444" lon="-4.48444445">
    <name>CA033 Cortijo la Alcaria</name>
    <sym>Circle</sym>
    <extensions>
      <identifier />
      <category />
    </extensions>
  </wpt>
  <wpt lat="36.41916666" lon="-4.21527779">
    <name>CA034 Cortijo las Cobatillas</name>
    <sym>Circle</sym>
    <extensions>
      <identifier />
      <category />
    </extensions>
  </wpt>
  <wpt lat="36.61416666" lon="-5.83555556">
    <name>CA035 Doña Blanca</name>
    <sym>Circle</sym>
    <extensions>
      <identifier />
      <category />
    </extensions>
  </wpt>
  <wpt lat="36.16583333" lon="-4.23361112">
    <name>CA036 El Acebuchal</name>
    <sym>Circle</sym>
    <extensions>
      <identifier />
      <category />
    </extensions>
  </wpt>
  <wpt lat="36.14638888" lon="-4.19500000">
    <name>CA037 El Almarchal</name>
    <sym>Circle</sym>
    <extensions>
      <identifier />
      <category />
    </extensions>
  </wpt>
  <wpt lat="36.45333333" lon="-5.95583334">
    <name>CA038 El Berrueco</name>
    <sym>Circle</sym>
    <extensions>
      <identifier />
      <category />
    </extensions>
  </wpt>
  <wpt lat="36.76222222" lon="-4.49638889">
    <name>CA039 El Bosque</name>
    <sym>Circle</sym>
    <extensions>
      <identifier />
      <category />
    </extensions>
  </wpt>
  <wpt lat="36.34277777" lon="-5.90750001">
    <name>CA040 El Colorado</name>
    <sym>Circle</sym>
    <extensions>
      <identifier />
      <category />
    </extensions>
  </wpt>
  <wpt lat="36.85722222" lon="-4.67666668">
    <name>CA041 El Gastor</name>
    <sym>Circle</sym>
    <extensions>
      <identifier />
      <category />
    </extensions>
  </wpt>
  <wpt lat="36.34916666" lon="-4.36944446">
    <name>CA042 El Jautor</name>
    <sym>Circle</sym>
    <extensions>
      <identifier />
      <category />
    </extensions>
  </wpt>
  <wpt lat="36.08999999" lon="-4.23638889">
    <name>CA043 El Lentiscar</name>
    <sym>Circle</sym>
    <extensions>
      <identifier />
      <category />
    </extensions>
  </wpt>
  <wpt lat="36.91416666" lon="-4.26305556">
    <name>CA044 El Morisco</name>
    <sym>Circle</sym>
    <extensions>
      <identifier />
      <category />
    </extensions>
  </wpt>
  <wpt lat="36.22777777" lon="-5.93750000">
    <name>CA045 El Palmar</name>
    <sym>Circle</sym>
    <extensions>
      <identifier />
      <category />
    </extensions>
  </wpt>
  <wpt lat="36.30388888" lon="-4.02138890">
    <name>CA046 El Parralejo</name>
    <sym>Circle</sym>
    <extensions>
      <identifier />
      <category />
    </extensions>
  </wpt>
  <wpt lat="36.09888888" lon="-4.53472223">
    <name>CA047 El Pelayo</name>
    <sym>Circle</sym>
    <extensions>
      <identifier />
      <category />
    </extensions>
  </wpt>
  <wpt lat="36.64055555" lon="-5.86638890">
    <name>CA048 El Portal</name>
    <sym>Circle</sym>
    <extensions>
      <identifier />
      <category />
    </extensions>
  </wpt>
  <wpt lat="36.60277777" lon="-5.77361112">
    <name>CA049 El Puerto de Santa María</name>
    <sym>Circle</sym>
    <extensions>
      <identifier />
      <category />
    </extensions>
  </wpt>
  <wpt lat="36.15055555" lon="-4.52861112">
    <name>CA050 El Rinconcillo</name>
    <sym>Circle</sym>
    <extensions>
      <identifier />
      <category />
    </extensions>
  </wpt>
  <wpt lat="36.87361110" lon="-4.19416667">
    <name>CA051 Espera</name>
    <sym>Circle</sym>
    <extensions>
      <identifier />
      <category />
    </extensions>
  </wpt>
  <wpt lat="36.14499999" lon="-4.29944445">
    <name>CA052 Facinas</name>
    <sym>Circle</sym>
    <extensions>
      <identifier />
      <category />
    </extensions>
  </wpt>
  <wpt lat="36.83749999" lon="-4.08416667">
    <name>CA053 Gibalgín</name>
    <sym>Circle</sym>
    <extensions>
      <identifier />
      <category />
    </extensions>
  </wpt>
  <wpt lat="36.76222222" lon="-4.63083334">
    <name>CA054 Grazalema</name>
    <sym>Circle</sym>
    <extensions>
      <identifier />
      <category />
    </extensions>
  </wpt>
  <wpt lat="36.71250000" lon="-5.91388890">
    <name>CA055 Guadalcacín</name>
    <sym>Circle</sym>
    <extensions>
      <identifier />
      <category />
    </extensions>
  </wpt>
  <wpt lat="36.18666666" lon="-4.58944445">
    <name>CA056 Guadarranque</name>
    <sym>Circle</sym>
    <extensions>
      <identifier />
      <category />
    </extensions>
  </wpt>
  <wpt lat="36.30194444" lon="-4.69250000">
    <name>CA057 Guadiaro</name>
    <sym>Circle</sym>
    <extensions>
      <identifier />
      <category />
    </extensions>
  </wpt>
  <wpt lat="36.27305554" lon="-4.10722223">
    <name>CA058 Jandilla</name>
    <sym>Circle</sym>
    <extensions>
      <identifier />
      <category />
    </extensions>
  </wpt>
  <wpt lat="36.51277777" lon="-5.85722223">
    <name>CA059 Jarana</name>
    <sym>Circle</sym>
    <extensions>
      <identifier />
      <category />
    </extensions>
  </wpt>
  <wpt lat="36.72777777" lon="-4.06694446">
    <name>CA060 Jédula</name>
    <sym>Circle</sym>
    <extensions>
      <identifier />
      <category />
    </extensions>
  </wpt>
  <wpt lat="36.69277777" lon="-5.86583334">
    <name>CA061 Jerez de la Frontera</name>
    <sym>Circle</sym>
    <extensions>
      <identifier />
      <category />
    </extensions>
  </wpt>
  <wpt lat="36.43777777" lon="-4.54694445">
    <name>CA062 Jimena de la Frontera</name>
    <sym>Circle</sym>
    <extensions>
      <identifier />
      <category />
    </extensions>
  </wpt>
  <wpt lat="36.91916666" lon="-4.57416668">
    <name>CA063 Juncales</name>
    <sym>Circle</sym>
    <extensions>
      <identifier />
      <category />
    </extensions>
  </wpt>
  <wpt lat="36.70250000" lon="-4.13750000">
    <name>CA064 Junta de los Ríos</name>
    <sym>Circle</sym>
    <extensions>
      <identifier />
      <category />
    </extensions>
  </wpt>
  <wpt lat="36.82249999" lon="-5.66944446">
    <name>CA065 La Algaida</name>
    <sym>Circle</sym>
    <extensions>
      <identifier />
      <category />
    </extensions>
  </wpt>
  <wpt lat="36.28111110" lon="-4.57000001">
    <name>CA066 La Almoraina</name>
    <sym>Circle</sym>
    <extensions>
      <identifier />
      <category />
    </extensions>
  </wpt>
  <wpt lat="36.37499999" lon="-5.82472223">
    <name>CA067 La Barrosa</name>
    <sym>Circle</sym>
    <extensions>
      <identifier />
      <category />
    </extensions>
  </wpt>
  <wpt lat="36.22138888" lon="-4.57083334">
    <name>CA068 La Estación</name>
    <sym>Circle</sym>
    <extensions>
      <identifier />
      <category />
    </extensions>
  </wpt>
  <wpt lat="36.76111111" lon="-5.60138890">
    <name>CA069 La Jara</name>
    <sym>Circle</sym>
    <extensions>
      <identifier />
      <category />
    </extensions>
  </wpt>
  <wpt lat="36.60027777" lon="-4.42194446">
    <name>CA070 La Jarda</name>
    <sym>Circle</sym>
    <extensions>
      <identifier />
      <category />
    </extensions>
  </wpt>
  <wpt lat="36.17249999" lon="-4.65333334">
    <name>CA071 La Línea de la Concepción</name>
    <sym>Circle</sym>
    <extensions>
      <identifier />
      <category />
    </extensions>
  </wpt>
  <wpt lat="36.62555554" lon="-5.69083334">
    <name>CA072 La Mata</name>
    <sym>Circle</sym>
    <extensions>
      <identifier />
      <category />
    </extensions>
  </wpt>
  <wpt lat="36.93166666" lon="-4.58805556">
    <name>CA073 La Muela</name>
    <sym>Circle</sym>
    <extensions>
      <identifier />
      <category />
    </extensions>
  </wpt>
  <wpt lat="36.27194443" lon="-4.00972223">
    <name>CA074 La Muela de Vejer</name>
    <sym>Circle</sym>
    <extensions>
      <identifier />
      <category />
    </extensions>
  </wpt>
  <wpt lat="36.75083333" lon="-5.93333334">
    <name>CA075 La Parra</name>
    <sym>Circle</sym>
    <extensions>
      <identifier />
      <category />
    </extensions>
  </wpt>
  <wpt lat="36.17055554" lon="-4.18388889">
    <name>CA076 La Zarzuela</name>
    <sym>Circle</sym>
    <extensions>
      <identifier />
      <category />
    </extensions>
  </wpt>
  <wpt lat="36.30805555" lon="-4.11888890">
    <name>CA077 Las Lomas</name>
    <sym>Circle</sym>
    <extensions>
      <identifier />
      <category />
    </extensions>
  </wpt>
  <wpt lat="36.28166666" lon="-4.06972223">
    <name>CA078 Libreros</name>
    <sym>Circle</sym>
    <extensions>
      <identifier />
      <category />
    </extensions>
  </wpt>
  <wpt lat="36.42111110" lon="-4.56472223">
    <name>CA079 Los Ángeles</name>
    <sym>Circle</sym>
    <extensions>
      <identifier />
      <category />
    </extensions>
  </wpt>
  <wpt lat="36.37611110" lon="-4.12388890">
    <name>CA080 Los Baladejos</name>
    <sym>Circle</sym>
    <extensions>
      <identifier />
      <category />
    </extensions>
  </wpt>
  <wpt lat="36.18722221" lon="-4.50722223">
    <name>CA081 Los Barrios</name>
    <sym>Circle</sym>
    <extensions>
      <identifier />
      <category />
    </extensions>
  </wpt>
  <wpt lat="36.18638888" lon="-5.65000000">
    <name>CA082 Los Caños de Meca</name>
    <sym>Circle</sym>
    <extensions>
      <identifier />
      <category />
    </extensions>
  </wpt>
  <wpt lat="36.36250000" lon="-4.02500001">
    <name>CA083 Los Naveros</name>
    <sym>Circle</sym>
    <extensions>
      <identifier />
      <category />
    </extensions>
  </wpt>
  <wpt lat="36.39277777" lon="-4.57722223">
    <name>CA084 Marchenilla</name>
    <sym>Circle</sym>
    <extensions>
      <identifier />
      <category />
    </extensions>
  </wpt>
  <wpt lat="36.51749999" lon="-5.75361112">
    <name>CA085 Matagorda</name>
    <sym>Circle</sym>
    <extensions>
      <identifier />
      <category />
    </extensions>
  </wpt>
  <wpt lat="36.46333333" lon="-4.07222223">
    <name>CA086 Medina Sidonia</name>
    <sym>Circle</sym>
    <extensions>
      <identifier />
      <category />
    </extensions>
  </wpt>
  <wpt lat="36.78499999" lon="-5.82638890">
    <name>CA087 Mesas de Asta</name>
    <sym>Circle</sym>
    <extensions>
      <identifier />
      <category />
    </extensions>
  </wpt>
  <wpt lat="36.76833332" lon="-4.04944445">
    <name>CA088 Mesas de Santiago</name>
    <sym>Circle</sym>
    <extensions>
      <identifier />
      <category />
    </extensions>
  </wpt>
  <wpt lat="36.46583333" lon="-4.35833334">
    <name>CA089 Molino de Castro</name>
    <sym>Circle</sym>
    <extensions>
      <identifier />
      <category />
    </extensions>
  </wpt>
  <wpt lat="36.75694444" lon="-5.96694446">
    <name>CA090 Nueva Jarilla</name>
    <sym>Circle</sym>
    <extensions>
      <identifier />
      <category />
    </extensions>
  </wpt>
  <wpt lat="36.93722221" lon="-4.73694445">
    <name>CA091 Olvera</name>
    <sym>Circle</sym>
    <extensions>
      <identifier />
      <category />
    </extensions>
  </wpt>
  <wpt lat="36.17805554" lon="-4.56722223">
    <name>CA092 Palmones</name>
    <sym>Circle</sym>
    <extensions>
      <identifier />
      <category />
    </extensions>
  </wpt>
  <wpt lat="36.06972221" lon="-4.27250001">
    <name>CA093 Paloma Baja</name>
    <sym>Circle</sym>
    <extensions>
      <identifier />
      <category />
    </extensions>
  </wpt>
  <wpt lat="36.46500000" lon="-4.32500001">
    <name>CA094 Patrite</name>
    <sym>Circle</sym>
    <extensions>
      <identifier />
      <category />
    </extensions>
  </wpt>
  <wpt lat="36.41083333" lon="-4.17361112">
    <name>CA095 Pedregosillo</name>
    <sym>Circle</sym>
    <extensions>
      <identifier />
      <category />
    </extensions>
  </wpt>
  <wpt lat="37.02611110" lon="-4.56750001">
    <name>CA096 Pozo Amargo</name>
    <sym>Circle</sym>
    <extensions>
      <identifier />
      <category />
    </extensions>
  </wpt>
  <wpt lat="36.78888888" lon="-4.44083334">
    <name>CA097 Prado del Rey</name>
    <sym>Circle</sym>
    <extensions>
      <identifier />
      <category />
    </extensions>
  </wpt>
  <wpt lat="36.18305554" lon="-4.61250001">
    <name>CA098 Puente Mayorga</name>
    <sym>Circle</sym>
    <extensions>
      <identifier />
      <category />
    </extensions>
  </wpt>
  <wpt lat="36.53472221" lon="-5.81666667">
    <name>CA099 Puerto Real</name>
    <sym>Circle</sym>
    <extensions>
      <identifier />
      <category />
    </extensions>
  </wpt>
  <wpt lat="36.92666666" lon="-4.45527779">
    <name>CA100 Puerto Serrano</name>
    <sym>Circle</sym>
    <extensions>
      <identifier />
      <category />
    </extensions>
  </wpt>
  <wpt lat="36.62472221" lon="-5.63805556">
    <name>CA101 Rota</name>
    <sym>Circle</sym>
    <extensions>
      <identifier />
      <category />
    </extensions>
  </wpt>
  <wpt lat="36.30777777" lon="-4.71027779">
    <name>CA102 San Enrique</name>
    <sym>Circle</sym>
    <extensions>
      <identifier />
      <category />
    </extensions>
  </wpt>
  <wpt lat="36.47027777" lon="-5.80250001">
    <name>CA103 San Fernando</name>
    <sym>Circle</sym>
    <extensions>
      <identifier />
      <category />
    </extensions>
  </wpt>
  <wpt lat="36.36222222" lon="-4.13027779">
    <name>CA104 San José de Malcocinado</name>
    <sym>Circle</sym>
    <extensions>
      <identifier />
      <category />
    </extensions>
  </wpt>
  <wpt lat="36.34222221" lon="-4.68111112">
    <name>CA105 San Martín del Tesorillo</name>
    <sym>Circle</sym>
    <extensions>
      <identifier />
      <category />
    </extensions>
  </wpt>
  <wpt lat="36.21361111" lon="-4.61194445">
    <name>CA106 San Roque</name>
    <sym>Circle</sym>
    <extensions>
      <identifier />
      <category />
    </extensions>
  </wpt>
  <wpt lat="36.39444444" lon="-5.79472223">
    <name>CA107 Sancti Petri</name>
    <sym>Circle</sym>
    <extensions>
      <identifier />
      <category />
    </extensions>
  </wpt>
  <wpt lat="36.78277777" lon="-5.64888889">
    <name>CA108 Sanlúcar de Barrameda</name>
    <sym>Circle</sym>
    <extensions>
      <identifier />
      <category />
    </extensions>
  </wpt>
  <wpt lat="36.86666666" lon="-4.82111112">
    <name>CA109 Setenil</name>
    <sym>Circle</sym>
    <extensions>
      <identifier />
      <category />
    </extensions>
  </wpt>
  <wpt lat="36.28722221" lon="-4.69500000">
    <name>CA110 Sotogrande</name>
    <sym>Circle</sym>
    <extensions>
      <identifier />
      <category />
    </extensions>
  </wpt>
  <wpt lat="36.18472221" lon="-4.24111112">
    <name>CA111 Tahivilla</name>
    <sym>Circle</sym>
    <extensions>
      <identifier />
      <category />
    </extensions>
  </wpt>
  <wpt lat="36.21000000" lon="-4.57750001">
    <name>CA112 Taraguilla</name>
    <sym>Circle</sym>
    <extensions>
      <identifier />
      <category />
    </extensions>
  </wpt>
  <wpt lat="36.01777777" lon="-4.40111112">
    <name>CA113 Tarifa</name>
    <sym>Circle</sym>
    <extensions>
      <identifier />
      <category />
    </extensions>
  </wpt>
  <wpt lat="36.91722221" lon="-4.76611112">
    <name>CA114 Torre Alhaquime</name>
    <sym>Circle</sym>
    <extensions>
      <identifier />
      <category />
    </extensions>
  </wpt>
  <wpt lat="36.34194444" lon="-5.84000000">
    <name>CA115 Torre del Puerco</name>
    <sym>Circle</sym>
    <extensions>
      <identifier />
      <category />
    </extensions>
  </wpt>
  <wpt lat="36.23583333" lon="-5.93055557">
    <name>CA116 Torre Nueva</name>
    <sym>Circle</sym>
    <extensions>
      <identifier />
      <category />
    </extensions>
  </wpt>
  <wpt lat="36.86944443" lon="-5.82555557">
    <name>CA117 Trebujena</name>
    <sym>Circle</sym>
    <extensions>
      <identifier />
      <category />
    </extensions>
  </wpt>
  <wpt lat="36.67916666" lon="-4.55416667">
    <name>CA118 Ubrique</name>
    <sym>Circle</sym>
    <extensions>
      <identifier />
      <category />
    </extensions>
  </wpt>
  <wpt lat="36.58277777" lon="-5.77722223">
    <name>CA119 Valdelagrana</name>
    <sym>Circle</sym>
    <extensions>
      <identifier />
      <category />
    </extensions>
  </wpt>
  <wpt lat="36.25277777" lon="-4.03388889">
    <name>CA120 Vejer de la Frontera</name>
    <sym>Circle</sym>
    <extensions>
      <identifier />
      <category />
    </extensions>
  </wpt>
  <wpt lat="36.86388888" lon="-4.35555556">
    <name>CA121 Villamartín</name>
    <sym>Circle</sym>
    <extensions>
      <identifier />
      <category />
    </extensions>
  </wpt>
  <wpt lat="36.69749999" lon="-4.61527779">
    <name>CA122 Villanueva del Rosario</name>
    <sym>Circle</sym>
    <extensions>
      <identifier />
      <category />
    </extensions>
  </wpt>
  <wpt lat="36.84055555" lon="-4.61166667">
    <name>CA123 Zahara</name>
    <sym>Circle</sym>
    <extensions>
      <identifier />
      <category />
    </extensions>
  </wpt>
  <wpt lat="36.13805555" lon="-4.15694445">
    <name>CA124 Zahara de los Atunes</name>
    <sym>Circle</sym>
    <extensions>
      <identifier />
      <category />
    </extensions>
  </wpt>
  <wpt lat="38.03083332" lon="-3.47611112">
    <name>CO001 Adamuz</name>
    <sym>Circle</sym>
    <extensions>
      <identifier />
      <category />
    </extensions>
  </wpt>
  <wpt lat="37.51888888" lon="-3.34222223">
    <name>CO002 Aguilar de la Frontera</name>
    <sym>Circle</sym>
    <extensions>
      <identifier />
      <category />
    </extensions>
  </wpt>
  <wpt lat="37.67166666" lon="-3.76416667">
    <name>CO003 Albendín</name>
    <sym>Circle</sym>
    <extensions>
      <identifier />
      <category />
    </extensions>
  </wpt>
  <wpt lat="38.38777777" lon="-3.03361112">
    <name>CO004 Alcaracejos</name>
    <sym>Circle</sym>
    <extensions>
      <identifier />
      <category />
    </extensions>
  </wpt>
  <wpt lat="37.93499999" lon="-3.32750001">
    <name>CO005 Alcolea</name>
    <sym>Circle</sym>
    <extensions>
      <identifier />
      <category />
    </extensions>
  </wpt>
  <wpt lat="37.71166666" lon="-3.12888890">
    <name>CO006 Aldea Quintana</name>
    <sym>Circle</sym>
    <extensions>
      <identifier />
      <category />
    </extensions>
  </wpt>
  <wpt lat="38.00138888" lon="-3.54583334">
    <name>CO007 Algallarín</name>
    <sym>Circle</sym>
    <extensions>
      <identifier />
      <category />
    </extensions>
  </wpt>
  <wpt lat="37.44361110" lon="-3.91416667">
    <name>CO008 Almedinilla</name>
    <sym>Circle</sym>
    <extensions>
      <identifier />
      <category />
    </extensions>
  </wpt>
  <wpt lat="37.81527777" lon="-4.97833334">
    <name>CO009 Almodóvar del Río</name>
    <sym>Circle</sym>
    <extensions>
      <identifier />
      <category />
    </extensions>
  </wpt>
  <wpt lat="38.41166666" lon="-3.10055556">
    <name>CO010 Añora</name>
    <sym>Circle</sym>
    <extensions>
      <identifier />
      <category />
    </extensions>
  </wpt>
  <wpt lat="38.20333333" lon="-4.51416667">
    <name>CO011 Argallón</name>
    <sym>Circle</sym>
    <extensions>
      <identifier />
      <category />
    </extensions>
  </wpt>
  <wpt lat="38.32666666" lon="-3.67166668">
    <name>CO012 Azuel</name>
    <sym>Circle</sym>
    <extensions>
      <identifier />
      <category />
    </extensions>
  </wpt>
  <wpt lat="37.61916666" lon="-3.67583334">
    <name>CO013 Baena</name>
    <sym>Circle</sym>
    <extensions>
      <identifier />
      <category />
    </extensions>
  </wpt>
  <wpt lat="38.57722221" lon="-4.83361112">
    <name>CO014 Belalcázar</name>
    <sym>Circle</sym>
    <extensions>
      <identifier />
      <category />
    </extensions>
  </wpt>
  <wpt lat="38.27583332" lon="-4.79250000">
    <name>CO015 Belmez</name>
    <sym>Circle</sym>
    <extensions>
      <identifier />
      <category />
    </extensions>
  </wpt>
  <wpt lat="37.79777777" lon="-4.76694446">
    <name>CO016 Bembézar</name>
    <sym>Circle</sym>
    <extensions>
      <identifier />
      <category />
    </extensions>
  </wpt>
  <wpt lat="37.27111110" lon="-3.46027779">
    <name>CO017 Benamejí</name>
    <sym>Circle</sym>
    <extensions>
      <identifier />
      <category />
    </extensions>
  </wpt>
  <wpt lat="37.89555555" lon="-3.62138890">
    <name>CO018 Bujalance</name>
    <sym>Circle</sym>
    <extensions>
      <identifier />
      <category />
    </extensions>
  </wpt>
  <wpt lat="37.47361110" lon="-3.56333334">
    <name>CO019 Cabra</name>
    <sym>Circle</sym>
    <extensions>
      <identifier />
      <category />
    </extensions>
  </wpt>
  <wpt lat="37.54527777" lon="-3.83888889">
    <name>CO020 Campo Nubes</name>
    <sym>Circle</sym>
    <extensions>
      <identifier />
      <category />
    </extensions>
  </wpt>
  <wpt lat="38.20750000" lon="-4.59500000">
    <name>CO021 Cañada del Gamo</name>
    <sym>Circle</sym>
    <extensions>
      <identifier />
      <category />
    </extensions>
  </wpt>
  <wpt lat="37.86944443" lon="-3.68333334">
    <name>CO022 Cañete de las Torres</name>
    <sym>Circle</sym>
    <extensions>
      <identifier />
      <category />
    </extensions>
  </wpt>
  <wpt lat="37.44499999" lon="-3.72777779">
    <name>CO023 Carcabuey</name>
    <sym>Circle</sym>
    <extensions>
      <identifier />
      <category />
    </extensions>
  </wpt>
  <wpt lat="38.27222221" lon="-3.67777779">
    <name>CO024 Cardeña</name>
    <sym>Circle</sym>
    <extensions>
      <identifier />
      <category />
    </extensions>
  </wpt>
  <wpt lat="37.49277777" lon="-3.85833334">
    <name>CO025 Castil de Campos</name>
    <sym>Circle</sym>
    <extensions>
      <identifier />
      <category />
    </extensions>
  </wpt>
  <wpt lat="37.69249999" lon="-3.52111112">
    <name>CO026 Castro del Río</name>
    <sym>Circle</sym>
    <extensions>
      <identifier />
      <category />
    </extensions>
  </wpt>
  <wpt lat="38.11222222" lon="-3.06305556">
    <name>CO027 Central Térmica Puente Nuevo</name>
    <sym>Circle</sym>
    <extensions>
      <identifier />
      <category />
    </extensions>
  </wpt>
  <wpt lat="38.00583333" lon="-3.22972223">
    <name>CO028 Cerro Muriano</name>
    <sym>Circle</sym>
    <extensions>
      <identifier />
      <category />
    </extensions>
  </wpt>
  <wpt lat="37.75305555" lon="-4.74138889">
    <name>CO029 Céspedes</name>
    <sym>Circle</sym>
    <extensions>
      <identifier />
      <category />
    </extensions>
  </wpt>
  <wpt lat="38.40944444" lon="-3.49972223">
    <name>CO030 Conquista</name>
    <sym>Circle</sym>
    <extensions>
      <identifier />
      <category />
    </extensions>
  </wpt>
  <wpt lat="37.87416666" lon="-3.22583334">
    <name>CO031 Córdoba</name>
    <sym>Circle</sym>
    <extensions>
      <identifier />
      <category />
    </extensions>
  </wpt>
  <wpt lat="37.36083333" lon="-3.26972223">
    <name>CO032 Cordobilla</name>
    <sym>Circle</sym>
    <extensions>
      <identifier />
      <category />
    </extensions>
  </wpt>
  <wpt lat="38.32583332" lon="-4.44472223">
    <name>CO033 Cuenca</name>
    <sym>Circle</sym>
    <extensions>
      <identifier />
      <category />
    </extensions>
  </wpt>
  <wpt lat="37.55916666" lon="-3.64722223">
    <name>CO034 Doña Mencia</name>
    <sym>Circle</sym>
    <extensions>
      <identifier />
      <category />
    </extensions>
  </wpt>
  <wpt lat="38.22222221" lon="-4.72805557">
    <name>CO035 Doña Rama</name>
    <sym>Circle</sym>
    <extensions>
      <identifier />
      <category />
    </extensions>
  </wpt>
  <wpt lat="38.44472221" lon="-3.10500001">
    <name>CO036 Dos Torres</name>
    <sym>Circle</sym>
    <extensions>
      <identifier />
      <category />
    </extensions>
  </wpt>
  <wpt lat="37.86000000" lon="-4.62500001">
    <name>CO037 El Aguila</name>
    <sym>Circle</sym>
    <extensions>
      <identifier />
      <category />
    </extensions>
  </wpt>
  <wpt lat="38.18222221" lon="-4.67277779">
    <name>CO038 El Alcornocal</name>
    <sym>Circle</sym>
    <extensions>
      <identifier />
      <category />
    </extensions>
  </wpt>
  <wpt lat="37.63694444" lon="-3.43250001">
    <name>CO039 El Arenal</name>
    <sym>Circle</sym>
    <extensions>
      <identifier />
      <category />
    </extensions>
  </wpt>
  <wpt lat="38.07555554" lon="-4.58694445">
    <name>CO040 El Cabril</name>
    <sym>Circle</sym>
    <extensions>
      <identifier />
      <category />
    </extensions>
  </wpt>
  <wpt lat="37.67055554" lon="-4.61000001">
    <name>CO049 El Calonge</name>
    <sym>Circle</sym>
    <extensions>
      <identifier />
      <category />
    </extensions>
  </wpt>
  <wpt lat="37.50972222" lon="-3.83861112">
    <name>CO050 El Cañuelo</name>
    <sym>Circle</sym>
    <extensions>
      <identifier />
      <category />
    </extensions>
  </wpt>
  <wpt lat="37.93999999" lon="-3.50972223">
    <name>CO051 El Carpio</name>
    <sym>Circle</sym>
    <extensions>
      <identifier />
      <category />
    </extensions>
  </wpt>
  <wpt lat="38.21333333" lon="-4.80000000">
    <name>CO053 El Entredicho</name>
    <sym>Circle</sym>
    <extensions>
      <identifier />
      <category />
    </extensions>
  </wpt>
  <wpt lat="37.55916666" lon="-3.19722223">
    <name>CO055 El Fontanar</name>
    <sym>Circle</sym>
    <extensions>
      <identifier />
      <category />
    </extensions>
  </wpt>
  <wpt lat="37.68388888" lon="-3.02222223">
    <name>CO056 El Garabato</name>
    <sym>Circle</sym>
    <extensions>
      <identifier />
      <category />
    </extensions>
  </wpt>
  <wpt lat="37.32083332" lon="-3.74527778">
    <name>CO057 El Higueral</name>
    <sym>Circle</sym>
    <extensions>
      <identifier />
      <category />
    </extensions>
  </wpt>
  <wpt lat="37.85777777" lon="-3.15833334">
    <name>CO058 El Higuerón</name>
    <sym>Circle</sym>
    <extensions>
      <identifier />
      <category />
    </extensions>
  </wpt>
  <wpt lat="37.47027777" lon="-3.87277779">
    <name>CO061 El Poleo</name>
    <sym>Circle</sym>
    <extensions>
      <identifier />
      <category />
    </extensions>
  </wpt>
  <wpt lat="37.23833333" lon="-3.45666667">
    <name>CO065 El Tejar</name>
    <sym>Circle</sym>
    <extensions>
      <identifier />
      <category />
    </extensions>
  </wpt>
  <wpt lat="38.07861110" lon="-3.13750000">
    <name>CO066 El Vacar</name>
    <sym>Circle</sym>
    <extensions>
      <identifier />
      <category />
    </extensions>
  </wpt>
  <wpt lat="38.48638888" lon="-3.04277778">
    <name>CO067 El Viso</name>
    <sym>Circle</sym>
    <extensions>
      <identifier />
      <category />
    </extensions>
  </wpt>
  <wpt lat="37.83249999" lon="-3.08055557">
    <name>CO068 Encinarejo de Córdoba</name>
    <sym>Circle</sym>
    <extensions>
      <identifier />
      <category />
    </extensions>
  </wpt>
  <wpt lat="37.27555554" lon="-3.51277779">
    <name>CO069 Encinas Reales</name>
    <sym>Circle</sym>
    <extensions>
      <identifier />
      <category />
    </extensions>
  </wpt>
  <wpt lat="37.68111110" lon="-3.44555556">
    <name>CO070 Espejo</name>
    <sym>Circle</sym>
    <extensions>
      <identifier />
      <category />
    </extensions>
  </wpt>
  <wpt lat="38.19138888" lon="-4.97916668">
    <name>CO071 Espiel</name>
    <sym>Circle</sym>
    <extensions>
      <identifier />
      <category />
    </extensions>
  </wpt>
  <wpt lat="37.67305554" lon="-3.27777779">
    <name>CO072 Fernán Núñez</name>
    <sym>Circle</sym>
    <extensions>
      <identifier />
      <category />
    </extensions>
  </wpt>
  <wpt lat="37.67166666" lon="-4.84527778">
    <name>CO073 Fuente Carretero</name>
    <sym>Circle</sym>
    <extensions>
      <identifier />
      <category />
    </extensions>
  </wpt>
  <wpt lat="38.42444443" lon="-4.95333334">
    <name>CO074 Fuente la Lancha</name>
    <sym>Circle</sym>
    <extensions>
      <identifier />
      <category />
    </extensions>
  </wpt>
  <wpt lat="38.26749999" lon="-4.57972223">
    <name>CO075 Fuente Obejuna</name>
    <sym>Circle</sym>
    <extensions>
      <identifier />
      <category />
    </extensions>
  </wpt>
  <wpt lat="37.70638888" lon="-4.89666667">
    <name>CO076 Fuente Palmera</name>
    <sym>Circle</sym>
    <extensions>
      <identifier />
      <category />
    </extensions>
  </wpt>
  <wpt lat="37.51166666" lon="-3.85583334">
    <name>CO077 Fuente Tójar</name>
    <sym>Circle</sym>
    <extensions>
      <identifier />
      <category />
    </extensions>
  </wpt>
  <wpt lat="37.20916666" lon="-3.69694445">
    <name>CO078 Fuentes del Conde</name>
    <sym>Circle</sym>
    <extensions>
      <identifier />
      <category />
    </extensions>
  </wpt>
  <wpt lat="37.42333332" lon="-3.62444446">
    <name>CO080 Gaena Casas Gallegas</name>
    <sym>Circle</sym>
    <extensions>
      <identifier />
      <category />
    </extensions>
  </wpt>
  <wpt lat="37.75805555" lon="-3.05555556">
    <name>CO081 Guadalcázar</name>
    <sym>Circle</sym>
    <extensions>
      <identifier />
      <category />
    </extensions>
  </wpt>
  <wpt lat="38.49694444" lon="-3.21916668">
    <name>CO082 Guijo</name>
    <sym>Circle</sym>
    <extensions>
      <identifier />
      <category />
    </extensions>
  </wpt>
  <wpt lat="38.50111111" lon="-4.85611112">
    <name>CO083 Hinojosa del Duque</name>
    <sym>Circle</sym>
    <extensions>
      <identifier />
      <category />
    </extensions>
  </wpt>
  <wpt lat="37.83444444" lon="-4.75583334">
    <name>CO084 Hornachuelos</name>
    <sym>Circle</sym>
    <extensions>
      <identifier />
      <category />
    </extensions>
  </wpt>
  <wpt lat="37.25888888" lon="-3.69555556">
    <name>CO085 Iznájar</name>
    <sym>Circle</sym>
    <extensions>
      <identifier />
      <category />
    </extensions>
  </wpt>
  <wpt lat="37.30361111" lon="-3.34500000">
    <name>CO087 Jauja</name>
    <sym>Circle</sym>
    <extensions>
      <identifier />
      <category />
    </extensions>
  </wpt>
  <wpt lat="38.14805555" lon="-4.65166667">
    <name>CO091 La Cardenchosa</name>
    <sym>Circle</sym>
    <extensions>
      <identifier />
      <category />
    </extensions>
  </wpt>
  <wpt lat="37.67583332" lon="-3.06750001">
    <name>CO092 La Carlota</name>
    <sym>Circle</sym>
    <extensions>
      <identifier />
      <category />
    </extensions>
  </wpt>
  <wpt lat="37.70222222" lon="-3.04916667">
    <name>CO094 La Chica Carlota</name>
    <sym>Circle</sym>
    <extensions>
      <identifier />
      <category />
    </extensions>
  </wpt>
  <wpt lat="37.71055555" lon="-3.00972223">
    <name>CO098 La Fuencubierta</name>
    <sym>Circle</sym>
    <extensions>
      <identifier />
      <category />
    </extensions>
  </wpt>
  <wpt lat="37.41111111" lon="-3.90666667">
    <name>CO099 La Fuente Grande</name>
    <sym>Circle</sym>
    <extensions>
      <identifier />
      <category />
    </extensions>
  </wpt>
  <wpt lat="38.37138888" lon="-4.64833334">
    <name>CO101 La Granjuela</name>
    <sym>Circle</sym>
    <extensions>
      <identifier />
      <category />
    </extensions>
  </wpt>
  <wpt lat="37.64249999" lon="-3.13444445">
    <name>CO102 La Guijarrosa</name>
    <sym>Circle</sym>
    <extensions>
      <identifier />
      <category />
    </extensions>
  </wpt>
  <wpt lat="37.52638888" lon="-3.08111112">
    <name>CO106 La Montiela</name>
    <sym>Circle</sym>
    <extensions>
      <identifier />
      <category />
    </extensions>
  </wpt>
  <wpt lat="37.60722222" lon="-3.25722223">
    <name>CO109 La Rambla</name>
    <sym>Circle</sym>
    <extensions>
      <identifier />
      <category />
    </extensions>
  </wpt>
  <wpt lat="37.68388888" lon="-3.15027779">
    <name>CO111 La Victoria</name>
    <sym>Circle</sym>
    <extensions>
      <identifier />
      <category />
    </extensions>
  </wpt>
  <wpt lat="37.47611110" lon="-3.88861112">
    <name>CO113 Las Higueras</name>
    <sym>Circle</sym>
    <extensions>
      <identifier />
      <category />
    </extensions>
  </wpt>
  <wpt lat="37.35500000" lon="-3.75361112">
    <name>CO114 Las Lagunillas</name>
    <sym>Circle</sym>
    <extensions>
      <identifier />
      <category />
    </extensions>
  </wpt>
  <wpt lat="37.71055555" lon="-3.05111112">
    <name>CO116 Las Pinedas</name>
    <sym>Circle</sym>
    <extensions>
      <identifier />
      <category />
    </extensions>
  </wpt>
  <wpt lat="37.89166666" lon="-3.28500000">
    <name>CO117 Las Quemadas</name>
    <sym>Circle</sym>
    <extensions>
      <identifier />
      <category />
    </extensions>
  </wpt>
  <wpt lat="37.40916666" lon="-3.58750000">
    <name>CO119 Llanos de Don Juan</name>
    <sym>Circle</sym>
    <extensions>
      <identifier />
      <category />
    </extensions>
  </wpt>
  <wpt lat="37.56472222" lon="-3.47500001">
    <name>CO120 Llanos del Espinar</name>
    <sym>Circle</sym>
    <extensions>
      <identifier />
      <category />
    </extensions>
  </wpt>
  <wpt lat="37.32555554" lon="-3.71138890">
    <name>CO122 Lorite</name>
    <sym>Circle</sym>
    <extensions>
      <identifier />
      <category />
    </extensions>
  </wpt>
  <wpt lat="37.63416666" lon="-3.06194445">
    <name>CO123 Los Algarbes</name>
    <sym>Circle</sym>
    <extensions>
      <identifier />
      <category />
    </extensions>
  </wpt>
  <wpt lat="38.40916666" lon="-4.56166667">
    <name>CO126 Los Blázquez</name>
    <sym>Circle</sym>
    <extensions>
      <identifier />
      <category />
    </extensions>
  </wpt>
  <wpt lat="37.81444444" lon="-3.03555556">
    <name>CO127 Los Mochos</name>
    <sym>Circle</sym>
    <extensions>
      <identifier />
      <category />
    </extensions>
  </wpt>
  <wpt lat="37.93166666" lon="-3.19138889">
    <name>CO128 Los Morales</name>
    <sym>Circle</sym>
    <extensions>
      <identifier />
      <category />
    </extensions>
  </wpt>
  <wpt lat="38.14861110" lon="-4.64194445">
    <name>CO129 Los Morenos</name>
    <sym>Circle</sym>
    <extensions>
      <identifier />
      <category />
    </extensions>
  </wpt>
  <wpt lat="38.19305555" lon="-4.67166668">
    <name>CO130 Los Pánchez</name>
    <sym>Circle</sym>
    <extensions>
      <identifier />
      <category />
    </extensions>
  </wpt>
  <wpt lat="37.41361111" lon="-3.51555556">
    <name>CO133 Lucena</name>
    <sym>Circle</sym>
    <extensions>
      <identifier />
      <category />
    </extensions>
  </wpt>