<?xml version="1.0" encoding="UTF-8" ?>
<kml xmlns="http://www.opengis.net/kml/2.2">  <Document>
    <Placemark>
      <name>AL001 Abejuela</name>
      <description>Abejuela</description>
      <Point>
        <coordinates>-1.90805556,37.50833333</coordinates>
      </Point>
    </Placemark>
    <Placemark>
      <name>AL002 Abla</name>
      <description>Abla</description>
      <Point>
        <coordinates>-2.77944444,37.14361111</coordinates>
      </Point>
    </Placemark>
    <Placemark>
      <name>AL003 Abrucena</name>
      <description>Abrucena</description>
      <Point>
        <coordinates>-2.79416667,37.13611111</coordinates>
      </Point>
    </Placemark>
    <Placemark>
      <name>AL004 Adra</name>
      <description>Adra</description>
      <Point>
        <coordinates>-3.02111111,36.75277778</coordinates>
      </Point>
    </Placemark>
    <Placemark>
      <name>AL005 Agua Amarga</name>
      <description>Agua Amarga</description>
      <Point>
        <coordinates>-1.93361111,36.94277778</coordinates>
      </Point>
    </Placemark>
    <Placemark>
      <name>AL006 Agua de Medio</name>
      <description>Agua de Medio</description>
      <Point>
        <coordinates>-1.86583333,37.07333333</coordinates>
      </Point>
    </Placemark>
    <Placemark>
      <name>AL007 Aguadulce</name>
      <description>Aguadulce</description>
      <Point>
        <coordinates>-2.56416667,36.81944444</coordinates>
      </Point>
    </Placemark>
    <Placemark>
      <name>AL008 Albanchez</name>
      <description>Albanchez</description>
      <Point>
        <coordinates>-2.18111111,37.28861111</coordinates>
      </Point>
    </Placemark>
    <Placemark>
      <name>AL009 Alboloduy</name>
      <description>Alboloduy</description>
      <Point>
        <coordinates>-2.61944444,37.03972222</coordinates>
      </Point>
    </Placemark>
    <Placemark>
      <name>AL010 Albox</name>
      <description>Albox</description>
      <Point>
        <coordinates>-2.14138889,37.39333333</coordinates>
      </Point>
    </Placemark>
    <Placemark>
      <name>AL011 Alcaudique</name>
      <description>Alcaudique</description>
      <Point>
        <coordinates>-2.93416667,36.83944444</coordinates>
      </Point>
    </Placemark>
    <Placemark>
      <name>AL012 Alcolea</name>
      <description>Alcolea</description>
      <Point>
        <coordinates>-2.95944444,36.97500000</coordinates>
      </Point>
    </Placemark>
    <Placemark>
      <name>AL013 Alcontar</name>
      <description>Alcontar</description>
      <Point>
        <coordinates>-2.59583333,37.33805556</coordinates>
      </Point>
    </Placemark>
    <Placemark>
      <name>AL014 Alcudia de Monteagud</name>
      <description>Alcudia de Monteagud</description>
      <Point>
        <coordinates>-2.26583333,37.23944444</coordinates>
      </Point>
    </Placemark>
    <Placemark>
      <name>AL015 Aldeire</name>
      <description>Aldeire</description>
      <Point>
        <coordinates>-2.58000000,37.30388889</coordinates>
      </Point>
    </Placemark>
    <Placemark>
      <name>AL016 Alfaix</name>
      <description>Alfaix</description>
      <Point>
        <coordinates>-1.95861111,37.14611111</coordinates>
      </Point>
    </Placemark>
    <Placemark>
      <name>AL017 Alhabia</name>
      <description>Alhabia</description>
      <Point>
        <coordinates>-2.58777778,36.99222222</coordinates>
      </Point>
    </Placemark>
    <Placemark>
      <name>AL018 Alhama de Almeria</name>
      <description>Alhama de Almeria</description>
      <Point>
        <coordinates>-2.56888889,36.96027778</coordinates>
      </Point>
    </Placemark>
    <Placemark>
      <name>AL019 Alicun</name>
      <description>Alicun</description>
      <Point>
        <coordinates>-2.60166667,36.96861111</coordinates>
      </Point>
    </Placemark>
    <Placemark>
      <name>AL020 Almadrava de Monteleva</name>
      <description>Almadrava de Monteleva</description>
      <Point>
        <coordinates>-2.21083333,36.75055556</coordinates>
      </Point>
    </Placemark>
    <Placemark>
      <name>AL021 Almajalejo</name>
      <description>Almajalejo</description>
      <Point>
        <coordinates>-1.99333333,37.39027778</coordinates>
      </Point>
    </Placemark>
    <Placemark>
      <name>AL022 Almanzora</name>
      <description>Almanzora</description>
      <Point>
        <coordinates>-2.13472222,37.35166667</coordinates>
      </Point>
    </Placemark>
    <Placemark>
      <name>AL023 Almeria</name>
      <description>Almeria</description>
      <Point>
        <coordinates>-2.45638889,36.84972222</coordinates>
      </Point>
    </Placemark>
    <Placemark>
      <name>AL024 Almerimar</name>
      <description>Almerimar</description>
      <Point>
        <coordinates>-2.78277778,36.69666667</coordinates>
      </Point>
    </Placemark>
    <Placemark>
      <name>AL025 Almocita</name>
      <description>Almocita</description>
      <Point>
        <coordinates>-2.78944444,37.30000000</coordinates>
      </Point>
    </Placemark>
    <Placemark>
      <name>AL026 Alsodux</name>
      <description>Alsodux</description>
      <Point>
        <coordinates>-2.58972222,37.25000000</coordinates>
      </Point>
    </Placemark>
    <Placemark>
      <name>AL027 Antas</name>
      <description>Antas</description>
      <Point>
        <coordinates>-1.91916667,37.24666667</coordinates>
      </Point>
    </Placemark>
    <Placemark>
      <name>AL028 Arboleas</name>
      <description>Arboleas</description>
      <Point>
        <coordinates>-2.07416667,37.35388889</coordinates>
      </Point>
    </Placemark>
    <Placemark>
      <name>AL029 Armuña de Almanzora</name>
      <description>Armuña de Almanzora</description>
      <Point>
        <coordinates>-2.41027778,37.35166667</coordinates>
      </Point>
    </Placemark>
    <Placemark>
      <name>AL030 Atochares</name>
      <description>Atochares</description>
      <Point>
        <coordinates>-2.16194444,36.88305556</coordinates>
      </Point>
    </Placemark>
    <Placemark>
      <name>AL031 Aulago</name>
      <description>Aulago</description>
      <Point>
        <coordinates>-2.62722222,37.16166667</coordinates>
      </Point>
    </Placemark>
    <Placemark>
      <name>AL032 Bacares</name>
      <description>Bacares</description>
      <Point>
        <coordinates>-2.45333333,37.26277778</coordinates>
      </Point>
    </Placemark>
    <Placemark>
      <name>AL033 Balanegra</name>
      <description>Balanegra</description>
      <Point>
        <coordinates>-2.90305556,36.75083333</coordinates>
      </Point>
    </Placemark>
    <Placemark>
      <name>AL034 Balerma</name>
      <description>Balerma</description>
      <Point>
        <coordinates>-2.88555556,36.73305556</coordinates>
      </Point>
    </Placemark>
    <Placemark>
      <name>AL035 Bayarcal</name>
      <description>Bayarcal</description>
      <Point>
        <coordinates>-2.99444444,37.03305556</coordinates>
      </Point>
    </Placemark>
    <Placemark>
      <name>AL036 Bayarque</name>
      <description>Bayarque</description>
      <Point>
        <coordinates>-2.43333333,37.33055556</coordinates>
      </Point>
    </Placemark>
    <Placemark>
      <name>AL037 Bedar</name>
      <description>Bedar</description>
      <Point>
        <coordinates>-1.98111111,37.19166667</coordinates>
      </Point>
    </Placemark>
    <Placemark>
      <name>AL038 Beires</name>
      <description>Beires</description>
      <Point>
        <coordinates>-2.79027778,37.88333333</coordinates>
      </Point>
    </Placemark>
    <Placemark>
      <name>AL039 Belaimi</name>
      <description>Belaimi</description>
      <Point>
        <coordinates>-2.12138889,37.59527778</coordinates>
      </Point>
    </Placemark>
    <Placemark>
      <name>AL040 Benahadux</name>
      <description>Benahadux</description>
      <Point>
        <coordinates>-2.45666667,36.92638889</coordinates>
      </Point>
    </Placemark>
    <Placemark>
      <name>AL041 Benecid</name>
      <description>Benecid</description>
      <Point>
        <coordinates>-2.85861111,36.99138889</coordinates>
      </Point>
    </Placemark>
    <Placemark>
      <name>AL042 Beninar</name>
      <description>Beninar</description>
      <Point>
        <coordinates>-3.02027778,36.88472222</coordinates>
      </Point>
    </Placemark>
    <Placemark>
      <name>AL043 Benitagla</name>
      <description>Benitagla</description>
      <Point>
        <coordinates>-2.23750000,37.23305556</coordinates>
      </Point>
    </Placemark>
    <Placemark>
      <name>AL044 Benitofare</name>
      <description>Benitofare</description>
      <Point>
        <coordinates>-2.29194444,37.24638889</coordinates>
      </Point>
    </Placemark>
    <Placemark>
      <name>AL045 Benizalón</name>
      <description>Benizalón</description>
      <Point>
        <coordinates>-2.24000000,37.21472222</coordinates>
      </Point>
    </Placemark>
    <Placemark>
      <name>AL046 Bentarique</name>
      <description>Bentarique</description>
      <Point>
        <coordinates>-2.62055556,36.99055556</coordinates>
      </Point>
    </Placemark>
    <Placemark>
      <name>AL047 Berja</name>
      <description>Berja</description>
      <Point>
        <coordinates>-2.94805556,36.84722222</coordinates>
      </Point>
    </Placemark>
    <Placemark>
      <name>AL048 Bolaimi</name>
      <description>Bolaimi</description>
      <Point>
        <coordinates>-2.10333333,37.59972222</coordinates>
      </Point>
    </Placemark>
    <Placemark>
      <name>AL049 Bujulu</name>
      <description>Bujulu</description>
      <Point>
        <coordinates>-1.81055556,37.27500000</coordinates>
      </Point>
    </Placemark>
    <Placemark>
      <name>AL050 Calar Alto</name>
      <description>Calar Alto</description>
      <Point>
        <coordinates>-2.53916667,37.22111111</coordinates>
      </Point>
    </Placemark>
    <Placemark>
      <name>AL051 Campico</name>
      <description>Campico</description>
      <Point>
        <coordinates>-2.04722222,37.06777778</coordinates>
      </Point>
    </Placemark>
    <Placemark>
      <name>AL052 Campohermoso</name>
      <description>Campohermoso</description>
      <Point>
        <coordinates>-2.13194444,36.93805556</coordinates>
      </Point>
    </Placemark>
    <Placemark>
      <name>AL053 Canjayar</name>
      <description>Canjayar</description>
      <Point>
        <coordinates>-2.74000000,37.71666667</coordinates>
      </Point>
    </Placemark>
    <Placemark>
      <name>AL054 Cantoria</name>
      <description>Cantoria</description>
      <Point>
        <coordinates>-2.19055556,37.35416667</coordinates>
      </Point>
    </Placemark>
    <Placemark>
      <name>AL055 Caracuz</name>
      <description>Caracuz</description>
      <Point>
        <coordinates>-2.73333333,36.88416667</coordinates>
      </Point>
    </Placemark>
    <Placemark>
      <name>AL056 Carboneras</name>
      <description>Carboneras</description>
      <Point>
        <coordinates>-1.89472222,37.11666667</coordinates>
      </Point>
    </Placemark>
    <Placemark>
      <name>AL057 Casablanca</name>
      <description>Casablanca</description>
      <Point>
        <coordinates>-2.27416667,37.70416667</coordinates>
      </Point>
    </Placemark>
    <Placemark>
      <name>AL058 Castala</name>
      <description>Castala</description>
      <Point>
        <coordinates>-2.92833333,36.88638889</coordinates>
      </Point>
    </Placemark>
    <Placemark>
      <name>AL059 Castel del Rey</name>
      <description>Castel del Rey</description>
      <Point>
        <coordinates>-2.49777778,36.83333333</coordinates>
      </Point>
    </Placemark>
    <Placemark>
      <name>AL060 Castro de Filabres</name>
      <description>Castro de Filabres</description>
      <Point>
        <coordinates>-2.44000000,37.18611111</coordinates>
      </Point>
    </Placemark>
    <Placemark>
      <name>AL061 Cela</name>
      <description>Cela</description>
      <Point>
        <coordinates>-2.44194444,37.37472222</coordinates>
      </Point>
    </Placemark>
    <Placemark>
      <name>AL062 Celin</name>
      <description>Celin</description>
      <Point>
        <coordinates>-2.87027778,36.83472222</coordinates>
      </Point>
    </Placemark>
    <Placemark>
      <name>AL063 Chercos</name>
      <description>Chercos</description>
      <Point>
        <coordinates>-2.25722222,37.26944444</coordinates>
      </Point>
    </Placemark>
    <Placemark>
      <name>AL064 Chiran</name>
      <description>Chiran</description>
      <Point>
        <coordinates>-2.93916667,36.90027778</coordinates>
      </Point>
    </Placemark>
    <Placemark>
      <name>AL065 Chirivel</name>
      <description>Chirivel</description>
      <Point>
        <coordinates>-2.26694444,37.59805556</coordinates>
      </Point>
    </Placemark>
    <Placemark>
      <name>AL066 Cobdar</name>
      <description>Cobdar</description>
      <Point>
        <coordinates>-2.20972222,37.26444444</coordinates>
      </Point>
    </Placemark>
    <Placemark>
      <name>AL067 Cortijada de Marin</name>
      <description>Cortijada de Marin</description>
      <Point>
        <coordinates>-2.65361111,36.75944444</coordinates>
      </Point>
    </Placemark>
    <Placemark>
      <name>AL068 Cortijo de los Callejones</name>
      <description>Cortijo de los Callejones</description>
      <Point>
        <coordinates>-2.44777778,36.87666667</coordinates>
      </Point>
    </Placemark>
    <Placemark>
      <name>AL069 Cuevas de Almanzora</name>
      <description>Cuevas de Almanzora</description>
      <Point>
        <coordinates>-1.87944444,37.30500000</coordinates>
      </Point>
    </Placemark>
    <Placemark>
      <name>AL070 Dalías</name>
      <description>Dalías</description>
      <Point>
        <coordinates>-2.87194444,36.82527778</coordinates>
      </Point>
    </Placemark>
    <Placemark>
      <name>AL071 Darrical</name>
      <description>Darrical</description>
      <Point>
        <coordinates>-3.02750000,36.92055556</coordinates>
      </Point>
    </Placemark>
    <Placemark>
      <name>AL072 Doña Maria</name>
      <description>Doña Maria</description>
      <Point>
        <coordinates>-2.71472222,37.13694444</coordinates>
      </Point>
    </Placemark>
    <Placemark>
      <name>AL073 El Alhanchete</name>
      <description>El Alhanchete</description>
      <Point>
        <coordinates>-1.88388889,37.31222222</coordinates>
      </Point>
    </Placemark>
    <Placemark>
      <name>AL074 El Almendral</name>
      <description>El Almendral</description>
      <Point>
        <coordinates>-2.53944444,37.15944444</coordinates>
      </Point>
    </Placemark>
    <Placemark>
      <name>AL075 El Alquian</name>
      <description>El Alquian</description>
      <Point>
        <coordinates>-2.35500000,36.85500000</coordinates>
      </Point>
    </Placemark>
    <Placemark>
      <name>AL076 El Argamason</name>
      <description>El Argamason</description>
      <Point>
        <coordinates>-1.97027778,36.99833333</coordinates>
      </Point>
    </Placemark>
    <Placemark>
      <name>AL077 El Arroyo Aceituno</name>
      <description>El Arroyo Aceituno</description>
      <Point>
        <coordinates>-2.06750000,37.34277778</coordinates>
      </Point>
    </Placemark>
    <Placemark>
      <name>AL078 El Arteal</name>
      <description>El Arteal</description>
      <Point>
        <coordinates>-1.77916667,37.27500000</coordinates>
      </Point>
    </Placemark>
    <Placemark>
      <name>AL079 El Barranco de los Lobos</name>
      <description>El Barranco de los Lobos</description>
      <Point>
        <coordinates>-2.17527778,37.09000000</coordinates>
      </Point>
    </Placemark>
    <Placemark>
      <name>AL080 El Barranquete</name>
      <description>El Barranquete</description>
      <Point>
        <coordinates>-2.19555556,36.84111111</coordinates>
      </Point>
    </Placemark>
    <Placemark>
      <name>AL081 El Bobar</name>
      <description>El Bobar</description>
      <Point>
        <coordinates>-2.40805556,36.82916667</coordinates>
      </Point>
    </Placemark>
    <Placemark>
      <name>AL082 El Cabo de Gata</name>
      <description>El Cabo de Gata</description>
      <Point>
        <coordinates>-2.24111111,36.78222222</coordinates>
      </Point>
    </Placemark>
    <Placemark>
      <name>AL083 El Cantal</name>
      <description>El Cantal</description>
      <Point>
        <coordinates>-2.21305556,37.53611111</coordinates>
      </Point>
    </Placemark>
    <Placemark>
      <name>AL084 El Cercado</name>
      <description>El Cercado</description>
      <Point>
        <coordinates>-2.04833333,37.69222222</coordinates>
      </Point>
    </Placemark>
    <Placemark>
      <name>AL085 El Chaparral Bajo</name>
      <description>El Chaparral Bajo</description>
      <Point>
        <coordinates>-2.38722222,37.48250000</coordinates>
      </Point>
    </Placemark>
    <Placemark>
      <name>AL086 El Chive</name>
      <description>El Chive</description>
      <Point>
        <coordinates>-2.07305556,37.17972222</coordinates>
      </Point>
    </Placemark>
    <Placemark>
      <name>AL087 El Chuche</name>
      <description>El Chuche</description>
      <Point>
        <coordinates>-2.45333333,36.91638889</coordinates>
      </Point>
    </Placemark>
    <Placemark>
      <name>AL088 El Cid</name>
      <description>El Cid</description>
      <Point>
        <coordinates>-2.97333333,36.88638889</coordinates>
      </Point>
    </Placemark>
    <Placemark>
      <name>AL089 El Cocon</name>
      <description>El Cocon</description>
      <Point>
        <coordinates>-1.67222222,37.40694444</coordinates>
      </Point>
    </Placemark>
    <Placemark>
      <name>AL090 El Contador</name>
      <description>El Contador</description>
      <Point>
        <coordinates>-2.36138889,37.59111111</coordinates>
      </Point>
    </Placemark>
    <Placemark>
      <name>AL091 El Ejido</name>
      <description>El Ejido</description>
      <Point>
        <coordinates>-2.81916667,36.77777778</coordinates>
      </Point>
    </Placemark>
    <Placemark>
      <name>AL092 El Hijate</name>
      <description>El Hijate</description>
      <Point>
        <coordinates>-2.59000000,37.39777778</coordinates>
      </Point>
    </Placemark>
    <Placemark>
      <name>AL093 El Jali</name>
      <description>El Jali</description>
      <Point>
        <coordinates>-2.24138889,37.57833333</coordinates>
      </Point>
    </Placemark>
    <Placemark>
      <name>AL094 El Largo</name>
      <description>El Largo</description>
      <Point>
        <coordinates>-1.76722222,37.33777778</coordinates>
      </Point>
    </Placemark>
    <Placemark>
      <name>AL095 El Llano de Don Antonio</name>
      <description>El Llano de Don Antonio</description>
      <Point>
        <coordinates>-1.93222222,37.06666667</coordinates>
      </Point>
    </Placemark>
    <Placemark>
      <name>AL096 El Marchal</name>
      <description>El Marchal</description>
      <Point>
        <coordinates>-2.02527778,37.21472222</coordinates>
      </Point>
    </Placemark>
    <Placemark>
      <name>AL097 El Margen</name>
      <description>El Margen</description>
      <Point>
        <coordinates>-2.23166667,37.52694444</coordinates>
      </Point>
    </Placemark>
    <Placemark>
      <name>AL098 El Mayordomo</name>
      <description>El Mayordomo</description>
      <Point>
        <coordinates>-2.12083333,37.12333333</coordinates>
      </Point>
    </Placemark>
    <Placemark>
      <name>AL099 El Palmer</name>
      <description>El Palmer</description>
      <Point>
        <coordinates>-2.53527778,36.82472222</coordinates>
      </Point>
    </Placemark>
    <Placemark>
      <name>AL100 El Parador</name>
      <description>El Parador</description>
      <Point>
        <coordinates>-2.59972222,36.81027778</coordinates>
      </Point>
    </Placemark>
    <Placemark>
      <name>AL101 El Pardo</name>
      <description>El Pardo</description>
      <Point>
        <coordinates>-2.96361111,36.77361111</coordinates>
      </Point>
    </Placemark>
    <Placemark>
      <name>AL102 El Piar de Abajo</name>
      <description>El Piar de Abajo</description>
      <Point>
        <coordinates>-2.02138889,37.67444444</coordinates>
      </Point>
    </Placemark>
    <Placemark>
      <name>AL103 El Pilar</name>
      <description>El Pilar</description>
      <Point>
        <coordinates>-2.09805556,37.19166667</coordinates>
      </Point>
    </Placemark>
    <Placemark>
      <name>AL104 El Pocico</name>
      <description>El Pocico</description>
      <Point>
        <coordinates>-2.04083333,37.24194444</coordinates>
      </Point>
    </Placemark>
    <Placemark>
      <name>AL105 El Pozo de los Frailes</name>
      <description>El Pozo de los Frailes</description>
      <Point>
        <coordinates>-2.10916667,36.79277778</coordinates>
      </Point>
    </Placemark>
    <Placemark>
      <name>AL106 El Pozo del Esparto</name>
      <description>El Pozo del Esparto</description>
      <Point>
        <coordinates>-1.69250000,37.33750000</coordinates>
      </Point>
    </Placemark>
    <Placemark>
      <name>AL107 El Puente del Rio</name>
      <description>El Puente del Rio</description>
      <Point>
        <coordinates>-2.98555556,36.75777778</coordinates>
      </Point>
    </Placemark>
    <Placemark>
      <name>AL108 El Puertecito</name>
      <description>El Puertecito</description>
      <Point>
        <coordinates>-1.98361111,37.51583333</coordinates>
      </Point>
    </Placemark>
    <Placemark>
      <name>AL109 El Puntal</name>
      <description>El Puntal</description>
      <Point>
        <coordinates>-2.13083333,37.17305556</coordinates>
      </Point>
    </Placemark>
    <Placemark>
      <name>AL110 El Puntal</name>
      <description>El Puntal</description>
      <Point>
        <coordinates>-2.36111111,37.47694444</coordinates>
      </Point>
    </Placemark>
    <Placemark>
      <name>AL111 El Real</name>
      <description>El Real</description>
      <Point>
        <coordinates>-1.91250000,37.26277778</coordinates>
      </Point>
    </Placemark>
    <Placemark>
      <name>AL112 El Retamar</name>
      <description>El Retamar</description>
      <Point>
        <coordinates>-2.31388889,36.83888889</coordinates>
      </Point>
    </Placemark>
    <Placemark>
      <name>AL113 El Rio Chico</name>
      <description>El Rio Chico</description>
      <Point>
        <coordinates>-2.99000000,36.81722222</coordinates>
      </Point>
    </Placemark>
    <Placemark>
      <name>AL114 El Rio Grande</name>
      <description>El Rio Grande</description>
      <Point>
        <coordinates>-3.02583333,36.82250000</coordinates>
      </Point>
    </Placemark>
    <Placemark>
      <name>AL115 El Romeral</name>
      <description>El Romeral</description>
      <Point>
        <coordinates>-2.13888889,36.75555556</coordinates>
      </Point>
    </Placemark>
    <Placemark>
      <name>AL116 El Salvador</name>
      <description>El Salvador</description>
      <Point>
        <coordinates>-1.90972222,37.40555556</coordinates>
      </Point>
    </Placemark>
    <Placemark>
      <name>AL117 El Solanillo</name>
      <description>El Solanillo</description>
      <Point>
        <coordinates>-2.66083333,36.73944444</coordinates>
      </Point>
    </Placemark>
    <Placemark>
      <name>AL118 El Viso</name>
      <description>El Viso</description>
      <Point>
        <coordinates>-2.20500000,36.88111111</coordinates>
      </Point>
    </Placemark>
    <Placemark>
      <name>AL119 Enix</name>
      <description>Enix</description>
      <Point>
        <coordinates>-2.60083333,36.87944444</coordinates>
      </Point>
    </Placemark>
    <Placemark>
      <name>AL120 Escullar</name>
      <description>Escullar</description>
      <Point>
        <coordinates>-2.73416667,37.18055556</coordinates>
      </Point>
    </Placemark>
    <Placemark>
      <name>AL121 Felix</name>
      <description>Felix</description>
      <Point>
        <coordinates>-2.65777778,36.86833333</coordinates>
      </Point>
    </Placemark>
    <Placemark>
      <name>AL122 Fernan Perez</name>
      <description>Fernan Perez</description>
      <Point>
        <coordinates>-2.06888889,36.91333333</coordinates>
      </Point>
    </Placemark>
    <Placemark>
      <name>AL123 Fines</name>
      <description>Fines</description>
      <Point>
        <coordinates>-2.26722222,37.36222222</coordinates>
      </Point>
    </Placemark>
    <Placemark>
      <name>AL124 Fiñana</name>
      <description>Fiñana</description>
      <Point>
        <coordinates>-2.83972222,37.17222222</coordinates>
      </Point>
    </Placemark>
    <Placemark>
      <name>AL125 Fondon</name>
      <description>Fondon</description>
      <Point>
        <coordinates>-2.85611111,36.98166667</coordinates>
      </Point>
    </Placemark>
    <Placemark>
      <name>AL126 Fuente Victoria</name>
      <description>Fuente Victoria</description>
      <Point>
        <coordinates>-2.87583333,36.98750000</coordinates>
      </Point>
    </Placemark>
    <Placemark>
      <name>AL127 Gador</name>
      <description>Gador</description>
      <Point>
        <coordinates>-2.48972222,36.95472222</coordinates>
      </Point>
    </Placemark>
    <Placemark>
      <name>AL128 Gafares</name>
      <description>Gafares</description>
      <Point>
        <coordinates>-1.98055556,37.65000000</coordinates>
      </Point>
    </Placemark>
    <Placemark>
      <name>AL129 Gafarrillos</name>
      <description>Gafarrillos</description>
      <Point>
        <coordinates>-2.01944444,37.05916667</coordinates>
      </Point>
    </Placemark>
    <Placemark>
      <name>AL130 Gangosa Vistasol</name>
      <description>Gangosa Vistasol</description>
      <Point>
        <coordinates>-2.63777778,36.80750000</coordinates>
      </Point>
    </Placemark>
    <Placemark>
      <name>AL131 Garcia</name>
      <description>Garcia</description>
      <Point>
        <coordinates>-1.82166667,37.42083333</coordinates>
      </Point>
    </Placemark>
    <Placemark>
      <name>AL132 Garrucha</name>
      <description>Garrucha</description>
      <Point>
        <coordinates>-1.81944444,37.18750000</coordinates>
      </Point>
    </Placemark>
    <Placemark>
      <name>AL133 Gergal</name>
      <description>Gergal</description>
      <Point>
        <coordinates>-2.54166667,37.11916667</coordinates>
      </Point>
    </Placemark>
    <Placemark>
      <name>AL134 Goñar</name>
      <description>Goñar</description>
      <Point>
        <coordinates>-1.87361111,37.49361111</coordinates>
      </Point>
    </Placemark>
    <Placemark>
      <name>AL135 Guainos Bajos</name>
      <description>Guainos Bajos</description>
      <Point>
        <coordinates>-3.07333333,36.75055556</coordinates>
      </Point>
    </Placemark>
    <Placemark>
      <name>AL136 Guardias Viejas</name>
      <description>Guardias Viejas</description>
      <Point>
        <coordinates>-2.84194444,36.70388889</coordinates>
      </Point>
    </Placemark>
    <Placemark>
      <name>AL137 Guarros</name>
      <description>Guarros</description>
      <Point>
        <coordinates>-2.95416667,37.50000000</coordinates>
      </Point>
    </Placemark>
    <Placemark>
      <name>AL138 Guazamara</name>
      <description>Guazamara</description>
      <Point>
        <coordinates>-1.77833333,37.35027778</coordinates>
      </Point>
    </Placemark>
    <Placemark>
      <name>AL139 Higueral</name>
      <description>Higueral</description>
      <Point>
        <coordinates>-2.49833333,37.38666667</coordinates>
      </Point>
    </Placemark>
    <Placemark>
      <name>AL140 Hirmes</name>
      <description>Hirmes</description>
      <Point>
        <coordinates>-2.99861111,36.89500000</coordinates>
      </Point>
    </Placemark>
    <Placemark>
      <name>AL141 Hortichuelas</name>
      <description>Hortichuelas</description>
      <Point>
        <coordinates>-2.02833333,36.87472222</coordinates>
      </Point>
    </Placemark>
    <Placemark>
      <name>AL142 Huebro</name>
      <description>Huebro</description>
      <Point>
        <coordinates>-2.22194444,36.98861111</coordinates>
      </Point>
    </Placemark>
    <Placemark>
      <name>AL143 Huecija</name>
      <description>Huecija</description>
      <Point>
        <coordinates>-2.60833333,36.96944444</coordinates>
      </Point>
    </Placemark>
    <Placemark>
      <name>AL144 Huercal Overa</name>
      <description>Huercal Overa</description>
      <Point>
        <coordinates>-1.94111111,37.39250000</coordinates>
      </Point>
    </Placemark>
    <Placemark>
      <name>AL145 Huercal de Almeria</name>
      <description>Huercal de Almeria</description>
      <Point>
        <coordinates>-2.43722222,36.88750000</coordinates>
      </Point>
    </Placemark>
    <Placemark>
      <name>AL146 Illar</name>
      <description>Illar</description>
      <Point>
        <coordinates>-2.63861111,36.98722222</coordinates>
      </Point>
    </Placemark>
    <Placemark>
      <name>AL147 Instincion</name>
      <description>Instincion</description>
      <Point>
        <coordinates>-2.65972222,36.99750000</coordinates>
      </Point>
    </Placemark>
    <Placemark>
      <name>AL148 Jauca Alta</name>
      <description>Jauca Alta</description>
      <Point>
        <coordinates>-2.56166667,37.42277778</coordinates>
      </Point>
    </Placemark>
    <Placemark>
      <name>AL149 Jauro</name>
      <description>Jauro</description>
      <Point>
        <coordinates>-2.16666667,37.21972222</coordinates>
      </Point>
    </Placemark>
    <Placemark>
      <name>AL150 La Alcazaba</name>
      <description>La Alcazaba</description>
      <Point>
        <coordinates>-3.09388889,36.75250000</coordinates>
      </Point>
    </Placemark>
    <Placemark>
      <name>AL151 La Alfahuara</name>
      <description>La Alfahuara</description>
      <Point>
        <coordinates>-2.24666667,37.70777778</coordinates>
      </Point>
    </Placemark>
    <Placemark>
      <name>AL152 La Alfoquia</name>
      <description>La Alfoquia</description>
      <Point>
        <coordinates>-2.04083333,37.35583333</coordinates>
      </Point>
    </Placemark>
    <Placemark>
      <name>AL153 La Alqueria</name>
      <description>La Alqueria</description>
      <Point>
        <coordinates>-3.23333333,36.77916667</coordinates>
      </Point>
    </Placemark>
    <Placemark>
      <name>AL154 La Aspilla</name>
      <description>La Aspilla</description>
      <Point>
        <coordinates>-2.32638889,37.56833333</coordinates>
      </Point>
    </Placemark>
    <Placemark>
      <name>AL155 La Barriada de Alcora</name>
      <description>La Barriada de Alcora</description>
      <Point>
        <coordinates>-2.73472222,36.99000000</coordinates>
      </Point>
    </Placemark>
    <Placemark>
      <name>AL156 La Cañada de Cañepla</name>
      <description>La Cañada de Cañepla</description>
      <Point>
        <coordinates>-2.28472222,37.79777778</coordinates>
      </Point>
    </Placemark>
    <Placemark>
      <name>AL157 La Cañada de San Urbano</name>
      <description>La Cañada de San Urbano</description>
      <Point>
        <coordinates>-2.40805556,36.84444444</coordinates>
      </Point>
    </Placemark>
    <Placemark>
      <name>AL158 La Carrasca</name>
      <description>La Carrasca</description>
      <Point>
        <coordinates>-1.94166667,37.09277778</coordinates>
      </Point>
    </Placemark>
    <Placemark>
      <name>AL159 La Cueva del Pájaro</name>
      <description>La Cueva del Pájaro</description>
      <Point>
        <coordinates>-1.95833333,37.03777778</coordinates>
      </Point>
    </Placemark>
    <Placemark>
      <name>AL160 La Estación</name>
      <description>La Estación</description>
      <Point>
        <coordinates>-2.59083333,37.11083333</coordinates>
      </Point>
    </Placemark>
    <Placemark>
      <name>AL161 La Estación</name>
      <description>La Estación</description>
      <Point>
        <coordinates>-2.83888889,37.18611111</coordinates>
      </Point>
    </Placemark>
    <Placemark>
      <name>AL162 La Fabriquilla</name>
      <description>La Fabriquilla</description>
      <Point>
        <coordinates>-2.20472222,36.74500000</coordinates>
      </Point>
    </Placemark>
    <Placemark>
      <name>AL163 La Fuensanta</name>
      <description>La Fuensanta</description>
      <Point>
        <coordinates>-1.95472222,37.51638889</coordinates>
      </Point>
    </Placemark>
    <Placemark>
      <name>AL164 La Fuente</name>
      <description>La Fuente</description>
      <Point>
        <coordinates>-3.05833333,36.76333333</coordinates>
      </Point>
    </Placemark>
    <Placemark>
      <name>AL165 La Fuente</name>
      <description>La Fuente</description>
      <Point>
        <coordinates>-1.75000000,37.39472222</coordinates>
      </Point>
    </Placemark>
    <Placemark>
      <name>AL166 La Fuente de la Higuera</name>
      <description>La Fuente de la Higuera</description>
      <Point>
        <coordinates>-2.24111111,37.17138889</coordinates>
      </Point>
    </Placemark>
    <Placemark>
      <name>AL167 La Fuente del Negro</name>
      <description>La Fuente del Negro</description>
      <Point>
        <coordinates>-2.36638889,37.48750000</coordinates>
      </Point>
    </Placemark>
    <Placemark>
      <name>AL168 La Garrofa</name>
      <description>La Garrofa</description>
      <Point>
        <coordinates>-2.51361111,36.83111111</coordinates>
      </Point>
    </Placemark>
    <Placemark>
      <name>AL169 La Herradura</name>
      <description>La Herradura</description>
      <Point>
        <coordinates>-2.15000000,37.04750000</coordinates>
      </Point>
    </Placemark>
    <Placemark>
      <name>AL170 La Hoya</name>
      <description>La Hoya</description>
      <Point>
        <coordinates>-2.08333333,37.47416667</coordinates>
      </Point>
    </Placemark>
    <Placemark>
      <name>AL171 La Huelga</name>
      <description>La Huelga</description>
      <Point>
        <coordinates>-2.73333333,37.11694444</coordinates>
      </Point>
    </Placemark>
    <Placemark>
      <name>AL172 La Isleta</name>
      <description>La Isleta</description>
      <Point>
        <coordinates>-2.04416667,36.82416667</coordinates>
      </Point>
    </Placemark>
    <Placemark>
      <name>AL173 La Islica</name>
      <description>La Islica</description>
      <Point>
        <coordinates>-1.92111111,37.01750000</coordinates>
      </Point>
    </Placemark>
    <Placemark>
      <name>AL174 La Mela</name>
      <description>La Mela</description>
      <Point>
        <coordinates>-2.10888889,37.16555556</coordinates>
      </Point>
    </Placemark>
    <Placemark>
      <name>AL175 La Mojonera</name>
      <description>La Mojonera</description>
      <Point>
        <coordinates>-2.68166667,36.75666667</coordinates>
      </Point>
    </Placemark>
    <Placemark>
      <name>AL176 La Muleria</name>
      <description>La Muleria</description>
      <Point>
        <coordinates>-1.79250000,37.28833333</coordinates>
      </Point>
    </Placemark>
    <Placemark>
      <name>AL177 La Parata</name>
      <description>La Parata</description>
      <Point>
        <coordinates>-1.99583333,37.42250000</coordinates>
      </Point>
    </Placemark>
    <Placemark>
      <name>AL178 La Parra</name>
      <description>La Parra</description>
      <Point>
        <coordinates>-3.06694444,36.78388889</coordinates>
      </Point>
    </Placemark>
    <Placemark>
      <name>AL179 La Peñarrodada</name>
      <description>La Peñarrodada</description>
      <Point>
        <coordinates>-2.97166667,36.86638889</coordinates>
      </Point>
    </Placemark>
    <Placemark>
      <name>AL180 La Perulera</name>
      <description>La Perulera</description>
      <Point>
        <coordinates>-2.73333333,37.43944444</coordinates>
      </Point>
    </Placemark>
    <Placemark>
      <name>AL181 La Portilla</name>
      <description>La Portilla</description>
      <Point>
        <coordinates>-1.86611111,37.29277778</coordinates>
      </Point>
    </Placemark>
    <Placemark>
      <name>AL182 La Rambla Algibe</name>
      <description>La Rambla Algibe</description>
      <Point>
        <coordinates>-2.04555556,37.26583333</coordinates>
      </Point>
    </Placemark>
    <Placemark>
      <name>AL183 La Rambla Honda</name>
      <description>La Rambla Honda</description>
      <Point>
        <coordinates>-2.17305556,37.03500000</coordinates>
      </Point>
    </Placemark>
    <Placemark>
      <name>AL184 La Ribera de la Algaida</name>
      <description>La Ribera de la Algaida</description>
      <Point>
        <coordinates>-2.59250000,36.79916667</coordinates>
      </Point>
    </Placemark>
    <Placemark>
      <name>AL185 La Serena</name>
      <description>La Serena</description>
      <Point>
        <coordinates>-1.98805556,37.17722222</coordinates>
      </Point>
    </Placemark>
    <Placemark>
      <name>AL186 La Yegua Baja</name>
      <description>La Yegua Baja</description>
      <Point>
        <coordinates>-2.22972222,37.54666667</coordinates>
      </Point>
    </Placemark>
    <Placemark>
      <name>AL187 Laroya</name>
      <description>Laroya</description>
      <Point>
        <coordinates>-2.32777778,37.29861111</coordinates>
      </Point>
    </Placemark>
    <Placemark>
      <name>AL188 Las Alcubillas</name>
      <description>Las Alcubillas</description>
      <Point>
        <coordinates>-2.58305556,37.09250000</coordinates>
      </Point>
    </Placemark>
    <Placemark>
      <name>AL189 Las Aneas</name>
      <description>Las Aneas</description>
      <Point>
        <coordinates>-2.53694444,37.14916667</coordinates>
      </Point>
    </Placemark>
    <Placemark>
      <name>AL190 Las Cabreras</name>
      <description>Las Cabreras</description>
      <Point>
        <coordinates>-2.86666667,37.54388889</coordinates>
      </Point>
    </Placemark>
    <Placemark>
      <name>AL191 Las Carboneras</name>
      <description>Las Carboneras</description>
      <Point>
        <coordinates>-2.62750000,37.28916667</coordinates>
      </Point>
    </Placemark>
    <Placemark>
      <name>AL192 Las Casas</name>
      <description>Las Casas</description>
      <Point>
        <coordinates>-2.17472222,37.63805556</coordinates>
      </Point>
    </Placemark>
    <Placemark>
      <name>AL193 Las Covatillas</name>
      <description>Las Covatillas</description>
      <Point>
        <coordinates>-2.21888889,37.89472222</coordinates>
      </Point>
    </Placemark>
    <Placemark>
      <name>AL194 Las Cuevas de los Medinas</name>
      <description>Las Cuevas de los Medinas</description>
      <Point>
        <coordinates>-2.27972222,36.89388889</coordinates>
      </Point>
    </Placemark>
    <Placemark>
      <name>AL195 Las Cuevas de los Ubedas</name>
      <description>Las Cuevas de los Ubedas</description>
      <Point>
        <coordinates>-2.29694444,36.92944444</coordinates>
      </Point>
    </Placemark>
    <Placemark>
      <name>AL196 Las Cunas</name>
      <description>Las Cunas</description>
      <Point>
        <coordinates>-1.84000000,37.27416667</coordinates>
      </Point>
    </Placemark>
    <Placemark>
      <name>AL197 Las Cupillas</name>
      <description>Las Cupillas</description>
      <Point>
        <coordinates>-1.87166667,37.30694444</coordinates>
      </Point>
    </Placemark>
    <Placemark>
      <name>AL198 Las Herrerias</name>
      <description>Las Herrerias</description>
      <Point>
        <coordinates>-2.02666667,37.10527778</coordinates>
      </Point>
    </Placemark>
    <Placemark>
      <name>AL199 Las Herrerias</name>
      <description>Las Herrerias</description>
      <Point>
        <coordinates>-1.77916667,37.27500000</coordinates>
      </Point>
    </Placemark>
    <Placemark>
      <name>AL200 Las Huevanillas</name>
      <description>Las Huevanillas</description>
      <Point>
        <coordinates>-2.09222222,37.30944444</coordinates>
      </Point>
    </Placemark>
    <Placemark>
      <name>AL201 Las Menas</name>
      <description>Las Menas</description>
      <Point>
        <coordinates>-2.51500000,37.28972222</coordinates>
      </Point>
    </Placemark>
    <Placemark>
      <name>AL202 Las Menas</name>
      <description>Las Menas</description>
      <Point>
        <coordinates>-1.99388889,37.35416667</coordinates>
      </Point>
    </Placemark>
    <Placemark>
      <name>AL203 Las Minas</name>
      <description>Las Minas</description>
      <Point>
        <coordinates>-2.53750000,36.92805556</coordinates>
      </Point>
    </Placemark>
    <Placemark>
      <name>AL204 Las Negras</name>
      <description>Las Negras</description>
      <Point>
        <coordinates>-2.35000000,36.88166667</coordinates>
      </Point>
    </Placemark>
    <Placemark>
      <name>AL205 Las Norias</name>
      <description>Las Norias</description>
      <Point>
        <coordinates>-2.73944444,36.75972222</coordinates>
      </Point>
    </Placemark>
    <Placemark>
      <name>AL206 Las Norias</name>
      <description>Las Norias</description>
      <Point>
        <coordinates>-1.85666667,37.46222222</coordinates>
      </Point>
    </Placemark>
    <Placemark>
      <name>AL207 Las Pocicas</name>
      <description>Las Pocicas</description>
      <Point>
        <coordinates>-2.14916667,37.47000000</coordinates>
      </Point>
    </Placemark>
    <Placemark>
      <name>AL208 Las Salinas</name>
      <description>Las Salinas</description>
      <Point>
        <coordinates>-2.64027778,36.73722222</coordinates>
      </Point>
    </Placemark>
    <Placemark>
      <name>AL209 Laujar de Andarax</name>
      <description>Laujar de Andarax</description>
      <Point>
        <coordinates>-2.89138889,36.99500000</coordinates>
      </Point>
    </Placemark>
    <Placemark>
      <name>AL210 Lijar</name>
      <description>Lijar</description>
      <Point>
        <coordinates>-2.21888889,37.29722222</coordinates>
      </Point>
    </Placemark>
    <Placemark>
      <name>AL211 Llano del Espino</name>
      <description>Llano del Espino</description>
      <Point>
        <coordinates>-2.17444444,37.43416667</coordinates>
      </Point>
    </Placemark>
    <Placemark>
      <name>AL212 Llanos de los Olleres</name>
      <description>Llanos de los Olleres</description>
      <Point>
        <coordinates>-2.16277778,37.42805556</coordinates>
      </Point>
    </Placemark>
    <Placemark>
      <name>AL213 Loma del Bosque</name>
      <description>Loma del Bosque</description>
      <Point>
        <coordinates>-2.76027778,36.76750000</coordinates>
      </Point>
    </Placemark>
    <Placemark>
      <name>AL214 Los Alamos</name>
      <description>Los Alamos</description>
      <Point>
        <coordinates>-2.32694444,37.54388889</coordinates>
      </Point>
    </Placemark>
    <Placemark>
      <name>AL215 Los Albaricoques</name>
      <description>Los Albaricoques</description>
      <Point>
        <coordinates>-2.12111111,36.85111111</coordinates>
      </Point>
    </Placemark>
    <Placemark>
      <name>AL216 Los Castaños</name>
      <description>Los Castaños</description>
      <Point>
        <coordinates>-2.04555556,37.14694444</coordinates>
      </Point>
    </Placemark>
    <Placemark>
      <name>AL217 Los Cerricos</name>
      <description>Los Cerricos</description>
      <Point>
        <coordinates>-2.20194444,37.53611111</coordinates>
      </Point>
    </Placemark>
    <Placemark>
      <name>AL218 Los Chacones</name>
      <description>Los Chacones</description>
      <Point>
        <coordinates>-2.20777778,37.46944444</coordinates>
      </Point>
    </Placemark>
    <Placemark>
      <name>AL219 Los Clementes</name>
      <description>Los Clementes</description>
      <Point>
        <coordinates>-3.07333333,36.82361111</coordinates>
      </Point>
    </Placemark>
    <Placemark>
      <name>AL220 Los Escuderos</name>
      <description>Los Escuderos</description>
      <Point>
        <coordinates>-3.11500000,36.76694444</coordinates>
      </Point>
    </Placemark>
    <Placemark>
      <name>AL221 Los Escullos</name>
      <description>Los Escullos</description>
      <Point>
        <coordinates>-2.05222222,36.81777778</coordinates>
      </Point>
    </Placemark>
    <Placemark>
      <name>AL222 Los Gallardos</name>
      <description>Los Gallardos</description>
      <Point>
        <coordinates>-1.93944444,37.17166667</coordinates>
      </Point>
    </Placemark>
    <Placemark>
      <name>AL223 Los Gateros</name>
      <description>Los Gateros</description>
      <Point>
        <coordinates>-2.03194444,37.48555556</coordinates>
      </Point>
    </Placemark>
    <Placemark>
      <name>AL224 Los Gazquez</name>
      <description>Los Gazquez</description>
      <Point>
        <coordinates>-1.95611111,37.55416667</coordinates>
      </Point>
    </Placemark>
    <Placemark>
      <name>AL225 Los Giles</name>
      <description>Los Giles</description>
      <Point>
        <coordinates>-2.13333333,37.13472222</coordinates>
      </Point>
    </Placemark>
    <Placemark>
      <name>AL226 Los Javielos</name>
      <description>Los Javielos</description>
      <Point>
        <coordinates>-2.04555556,37.17222222</coordinates>
      </Point>
    </Placemark>
    <Placemark>
      <name>AL227 Los Jimenez</name>
      <description>Los Jimenez</description>
      <Point>
        <coordinates>-2.11833333,36.87361111</coordinates>
      </Point>
    </Placemark>
    <Placemark>
      <name>AL228 Los Lobos</name>
      <description>Los Lobos</description>
      <Point>
        <coordinates>-1.76444444,37.30944444</coordinates>
      </Point>
    </Placemark>
    <Placemark>
      <name>AL229 Los Martinez</name>
      <description>Los Martinez</description>
      <Point>
        <coordinates>-2.10222222,36.87611111</coordinates>
      </Point>
    </Placemark>
    <Placemark>
      <name>AL230 Los Molinas</name>
      <description>Los Molinas</description>
      <Point>
        <coordinates>-2.13111111,37.27500000</coordinates>
      </Point>
    </Placemark>
    <Placemark>
      <name>AL231 Los Moras</name>
      <description>Los Moras</description>
      <Point>
        <coordinates>-3.10861111,36.78916667</coordinates>
      </Point>
    </Placemark>
    <Placemark>
      <name>AL232 Los Nietos</name>
      <description>Los Nietos</description>
      <Point>
        <coordinates>-2.18222222,36.88833333</coordinates>
      </Point>
    </Placemark>
    <Placemark>
      <name>AL233 Los Pardos</name>
      <description>Los Pardos</description>
      <Point>
        <coordinates>-2.06000000,37.50333333</coordinates>
      </Point>
    </Placemark>
    <Placemark>
      <name>AL234 Los Perales</name>
      <description>Los Perales</description>
      <Point>
        <coordinates>-2.05111111,37.09222222</coordinates>
      </Point>
    </Placemark>
    <Placemark>
      <name>AL235 Los Perez</name>
      <description>Los Perez</description>
      <Point>
        <coordinates>-3.07638889,36.80638889</coordinates>
      </Point>
    </Placemark>
    <Placemark>
      <name>AL236 Los Santos</name>
      <description>Los Santos</description>
      <Point>
        <coordinates>-2.60611111,37.26111111</coordinates>
      </Point>
    </Placemark>
    <Placemark>
      <name>AL237 Los Tonosas</name>
      <description>Los Tonosas</description>
      <Point>
        <coordinates>-2.04750000,37.59777778</coordinates>
      </Point>
    </Placemark>
    <Placemark>
      <name>AL238 Los Utreras</name>
      <description>Los Utreras</description>
      <Point>
        <coordinates>-2.13638889,37.28416667</coordinates>
      </Point>
    </Placemark>
    <Placemark>
      <name>AL239 Lubrin</name>
      <description>Lubrin</description>
      <Point>
        <coordinates>-2.06583333,37.21777778</coordinates>
      </Point>
    </Placemark>
    <Placemark>
      <name>AL240 Lucainena</name>
      <description>Lucainena</description>
      <Point>
        <coordinates>-3.02333333,36.94444444</coordinates>
      </Point>
    </Placemark>
    <Placemark>
      <name>AL241 Lucainena de las Torres</name>
      <description>Lucainena de las Torres</description>
      <Point>
        <coordinates>-2.20027778,37.04361111</coordinates>
      </Point>
    </Placemark>
    <Placemark>
      <name>AL242 Lucar</name>
      <description>Lucar</description>
      <Point>
        <coordinates>-2.42277778,37.40194444</coordinates>
      </Point>
    </Placemark>
    <Placemark>
      <name>AL243 Macael</name>
      <description>Macael</description>
      <Point>
        <coordinates>-2.30166667,37.33555556</coordinates>
      </Point>
    </Placemark>
    <Placemark>
      <name>AL244 Maria</name>
      <description>Maria</description>
      <Point>
        <coordinates>-2.16472222,37.71083333</coordinates>
      </Point>
    </Placemark>
    <Placemark>
      <name>AL245 Marraque</name>
      <description>Marraque</description>
      <Point>
        <coordinates>-2.44861111,36.94000000</coordinates>
      </Point>
    </Placemark>
    <Placemark>
      <name>AL246 Matagorda</name>
      <description>Matagorda</description>
      <Point>
        <coordinates>-2.84194444,36.71833333</coordinates>
      </Point>
    </Placemark>
    <Placemark>
      <name>AL247 Mojacar</name>
      <description>Mojacar</description>
      <Point>
        <coordinates>-1.84972222,37.14138889</coordinates>
      </Point>
    </Placemark>
    <Placemark>
      <name>AL248 Monsul</name>
      <description>Monsul</description>
      <Point>
        <coordinates>-2.14972222,36.73666667</coordinates>
      </Point>
    </Placemark>
    <Placemark>
      <name>AL249 Nacimiento</name>
      <description>Nacimiento</description>
      <Point>
        <coordinates>-2.64944444,37.10833333</coordinates>
      </Point>
    </Placemark>
    <Placemark>
      <name>AL250 Nijar</name>
      <description>Nijar</description>
      <Point>
        <coordinates>-2.20527778,36.96777778</coordinates>
      </Point>
    </Placemark>
    <Placemark>
      <name>AL251 Ocaña</name>
      <description>Ocaña</description>
      <Point>
        <coordinates>-2.72777778,37.13027778</coordinates>
      </Point>
    </Placemark>
    <Placemark>
      <name>AL252 Ohanes</name>
      <description>Ohanes</description>
      <Point>
        <coordinates>-2.74472222,37.04055556</coordinates>
      </Point>
    </Placemark>
    <Placemark>
      <name>AL253 Olula de Castro</name>
      <description>Olula de Castro</description>
      <Point>
        <coordinates>-2.47611111,37.17500000</coordinates>
      </Point>
    </Placemark>
    <Placemark>
      <name>AL254 Olula del Rio</name>
      <description>Olula del Rio</description>
      <Point>
        <coordinates>-2.29805556,37.35944444</coordinates>
      </Point>
    </Placemark>
    <Placemark>
      <name>AL255 Oria</name>
      <description>Oria</description>
      <Point>
        <coordinates>-2.28472222,37.48527778</coordinates>
      </Point>
    </Placemark>
    <Placemark>
      <name>AL256 Padules</name>
      <description>Padules</description>
      <Point>
        <coordinates>-2.77222222,36.99944444</coordinates>
      </Point>
    </Placemark>
    <Placemark>
      <name>AL257 Palomares</name>
      <description>Palomares</description>
      <Point>
        <coordinates>-1.79527778,37.24666667</coordinates>
      </Point>
    </Placemark>
    <Placemark>
      <name>AL258 Pampanico</name>
      <description>Pampanico</description>
      <Point>
        <coordinates>-2.83305556,36.78722222</coordinates>
      </Point>
    </Placemark>
    <Placemark>
      <name>AL259 Partaloa</name>
      <description>Partaloa</description>
      <Point>
        <coordinates>-2.22777778,37.40777778</coordinates>
      </Point>
    </Placemark>
    <Placemark>
      <name>AL260 Paterna del Rio</name>
      <description>Paterna del Rio</description>
      <Point>
        <coordinates>-2.95250000,37.02388889</coordinates>
      </Point>
    </Placemark>
    <Placemark>
      <name>AL261 Paulenca</name>
      <description>Paulenca</description>
      <Point>
        <coordinates>-2.48972222,36.96138889</coordinates>
      </Point>
    </Placemark>
    <Placemark>
      <name>AL262 Pechina</name>
      <description>Pechina</description>
      <Point>
        <coordinates>-2.44361111,36.91750000</coordinates>
      </Point>
    </Placemark>
    <Placemark>
      <name>AL263 Pilacon</name>
      <description>Pilacon</description>
      <Point>
        <coordinates>-2.60972222,37.39583333</coordinates>
      </Point>
    </Placemark>
    <Placemark>
      <name>AL264 Pilar de Jaravia</name>
      <description>Pilar de Jaravia</description>
      <Point>
        <coordinates>-1.69111111,37.39305556</coordinates>
      </Point>
    </Placemark>
    <Placemark>
      <name>AL265 Polopos</name>
      <description>Polopos</description>
      <Point>
        <coordinates>-2.07944444,37.02777778</coordinates>
      </Point>
    </Placemark>
    <Placemark>
      <name>AL266 Pozo de la Higuera</name>
      <description>Pozo de la Higuera</description>
      <Point>
        <coordinates>-1.73694444,37.44388889</coordinates>
      </Point>
    </Placemark>
    <Placemark>
      <name>AL267 Puebla de Vicar</name>
      <description>Puebla de Vicar</description>
      <Point>
        <coordinates>-2.65388889,36.79972222</coordinates>
      </Point>
    </Placemark>
    <Placemark>
      <name>AL268 Pueblo Blanco</name>
      <description>Pueblo Blanco</description>
      <Point>
        <coordinates>-2.13250000,36.91194444</coordinates>
      </Point>
    </Placemark>
    <Placemark>
      <name>AL269 Puerto del Rey</name>
      <description>Puerto del Rey</description>
      <Point>
        <coordinates>-1.81333333,37.20472222</coordinates>
      </Point>
    </Placemark>
    <Placemark>
      <name>AL270 Pulpi</name>
      <description>Pulpi</description>
      <Point>
        <coordinates>-1.74500000,37.41333333</coordinates>
      </Point>
    </Placemark>
    <Placemark>
      <name>AL271 Purchena</name>
      <description>Purchena</description>
      <Point>
        <coordinates>-2.36138889,37.35055556</coordinates>
      </Point>
    </Placemark>
    <Placemark>
      <name>AL272 Ragol</name>
      <description>Ragol</description>
      <Point>
        <coordinates>-2.68277778,36.99833333</coordinates>
      </Point>
    </Placemark>
    <Placemark>
      <name>AL273 Rambla de Morales</name>
      <description>Rambla de Morales</description>
      <Point>
        <coordinates>-2.23694444,36.81472222</coordinates>
      </Point>
    </Placemark>
    <Placemark>
      <name>AL274 Rioja</name>
      <description>Rioja</description>
      <Point>
        <coordinates>-2.46416667,36.94750000</coordinates>
      </Point>
    </Placemark>
    <Placemark>
      <name>AL275 Rodalquilar</name>
      <description>Rodalquilar</description>
      <Point>
        <coordinates>-2.04166667,36.84916667</coordinates>
      </Point>
    </Placemark>
    <Placemark>
      <name>AL276 Roquetas de Mar</name>
      <description>Roquetas de Mar</description>
      <Point>
        <coordinates>-2.61638889,36.76583333</coordinates>
      </Point>
    </Placemark>
    <Placemark>
      <name>AL277 Saladar Y Leche</name>
      <description>Saladar Y Leche</description>
      <Point>
        <coordinates>-2.09611111,36.96444444</coordinates>
      </Point>
    </Placemark>
    <Placemark>
      <name>AL278 San Agustin</name>
      <description>San Agustin</description>
      <Point>
        <coordinates>-2.68916667,36.71722222</coordinates>
      </Point>
    </Placemark>
    <Placemark>
      <name>AL279 San Francisco</name>
      <description>San Francisco</description>
      <Point>
        <coordinates>-1.88083333,37.42444444</coordinates>
      </Point>
    </Placemark>
    <Placemark>
      <name>AL280 San Isidro de Nijar</name>
      <description>San Isidro de Nijar</description>
      <Point>
        <coordinates>-2.17472222,36.90777778</coordinates>
      </Point>
    </Placemark>
    <Placemark>
      <name>AL281 San Jose</name>
      <description>San Jose</description>
      <Point>
        <coordinates>-2.11027778,36.76694444</coordinates>
      </Point>
    </Placemark>
    <Placemark>
      <name>AL282 San Juan de los Terreros</name>
      <description>San Juan de los Terreros</description>
      <Point>
        <coordinates>-1.65444444,37.36083333</coordinates>
      </Point>
    </Placemark>
    <Placemark>
      <name>AL283 San Roque</name>
      <description>San Roque</description>
      <Point>
        <coordinates>-2.96833333,36.84055556</coordinates>
      </Point>
    </Placemark>
    <Placemark>
      <name>AL284 Santa Barbara</name>
      <description>Santa Barbara</description>
      <Point>
        <coordinates>-1.96111111,37.35444444</coordinates>
      </Point>
    </Placemark>
    <Placemark>
      <name>AL285 Santa Cruz de Marchena</name>
      <description>Santa Cruz de Marchena</description>
      <Point>
        <coordinates>-2.59944444,37.01944444</coordinates>
      </Point>
    </Placemark>
    <Placemark>
      <name>AL286 Santa Fe de Mondujar</name>
      <description>Santa Fe de Mondujar</description>
      <Point>
        <coordinates>-2.53222222,36.97583333</coordinates>
      </Point>
    </Placemark>
    <Placemark>
      <name>AL287 Santa Maria de Nieva</name>
      <description>Santa Maria de Nieva</description>
      <Point>
        <coordinates>-1.98638889,37.46888889</coordinates>
      </Point>
    </Placemark>
    <Placemark>
      <name>AL288 Santa Maria del Aguila</name>
      <description>Santa Maria del Aguila</description>
      <Point>
        <coordinates>-2.77694444,36.78138889</coordinates>
      </Point>
    </Placemark>
    <Placemark>
      <name>AL289 Santillana</name>
      <description>Santillana</description>
      <Point>
        <coordinates>-2.72472222,37.09972222</coordinates>
      </Point>
    </Placemark>
    <Placemark>
      <name>AL290 Santopetar</name>
      <description>Santopetar</description>
      <Point>
        <coordinates>-2.03888889,37.45777778</coordinates>
      </Point>
    </Placemark>
    <Placemark>
      <name>AL291 Senes</name>
      <description>Senes</description>
      <Point>
        <coordinates>-2.34694444,37.20611111</coordinates>
      </Point>
    </Placemark>
    <Placemark>
      <name>AL292 Seron</name>
      <description>Seron</description>
      <Point>
        <coordinates>-2.51000000,37.34722222</coordinates>
      </Point>
    </Placemark>
    <Placemark>
      <name>AL293 Sierro</name>
      <description>Sierro</description>
      <Point>
        <coordinates>-2.39666667,37.32277778</coordinates>
      </Point>
    </Placemark>
    <Placemark>
      <name>AL294 Somontin</name>
      <description>Somontin</description>
      <Point>
        <coordinates>-2.38833333,37.39388889</coordinates>
      </Point>
    </Placemark>
    <Placemark>
      <name>AL295 Sorbas</name>
      <description>Sorbas</description>
      <Point>
        <coordinates>-2.12277778,37.09944444</coordinates>
      </Point>
    </Placemark>
    <Placemark>
      <name>AL296 Sufli</name>
      <description>Sufli</description>
      <Point>
        <coordinates>-2.39138889,37.34222222</coordinates>
      </Point>
    </Placemark>
    <Placemark>
      <name>AL297 Tabernas</name>
      <description>Tabernas</description>
      <Point>
        <coordinates>-2.39000000,37.05361111</coordinates>
      </Point>
    </Placemark>
    <Placemark>
      <name>AL298 Taberno</name>
      <description>Taberno</description>
      <Point>
        <coordinates>-2.07694444,37.46944444</coordinates>
      </Point>
    </Placemark>
    <Placemark>
      <name>AL299 Tahal</name>
      <description>Tahal</description>
      <Point>
        <coordinates>-2.28444444,37.22944444</coordinates>
      </Point>
    </Placemark>
    <Placemark>
      <name>AL300 Tarambana</name>
      <description>Tarambana</description>
      <Point>
        <coordinates>-2.86277778,36.76666667</coordinates>
      </Point>
    </Placemark>
    <Placemark>
      <name>AL301 Terque</name>
      <description>Terque</description>
      <Point>
        <coordinates>-2.59722222,36.98944444</coordinates>
      </Point>
    </Placemark>
    <Placemark>
      <name>AL302 Tices</name>
      <description>Tices</description>
      <Point>
        <coordinates>-2.73777778,37.06944444</coordinates>
      </Point>
    </Placemark>
    <Placemark>
      <name>AL303 Tijola</name>
      <description>Tijola</description>
      <Point>
        <coordinates>-2.43666667,37.34777778</coordinates>
      </Point>
    </Placemark>
    <Placemark>
      <name>AL304 Toperas</name>
      <description>Toperas</description>
      <Point>
        <coordinates>-2.23000000,37.86277778</coordinates>
      </Point>
    </Placemark>
    <Placemark>
      <name>AL305 Turre</name>
      <description>Turre</description>
      <Point>
        <coordinates>-1.89388889,37.15500000</coordinates>
      </Point>
    </Placemark>
    <Placemark>
      <name>AL306 Turrillas</name>
      <description>Turrillas</description>
      <Point>
        <coordinates>-2.26277778,37.03166667</coordinates>
      </Point>
    </Placemark>
    <Placemark>
      <name>AL307 Urcal</name>
      <description>Urcal</description>
      <Point>
        <coordinates>-1.91805556,37.46972222</coordinates>
      </Point>
    </Placemark>
    <Placemark>
      <name>AL308 Urracal</name>
      <description>Urracal</description>
      <Point>
        <coordinates>-2.36416667,37.39750000</coordinates>
      </Point>
    </Placemark>
    <Placemark>
      <name>AL309 Velefique</name>
      <description>Velefique</description>
      <Point>
        <coordinates>-2.40222222,37.19416667</coordinates>
      </Point>
    </Placemark>
    <Placemark>
      <name>AL310 Velez Blanco</name>
      <description>Velez Blanco</description>
      <Point>
        <coordinates>-2.09555556,37.69194444</coordinates>
      </Point>
    </Placemark>
    <Placemark>
      <name>AL311 Velez Rubio</name>
      <description>Velez Rubio</description>
      <Point>
        <coordinates>-2.07194444,37.64944444</coordinates>
      </Point>
    </Placemark>
    <Placemark>
      <name>AL312 Venta de los Yesos</name>
      <description>Venta de los Yesos</description>
      <Point>
        <coordinates>-2.29138889,37.08638889</coordinates>
      </Point>
    </Placemark>
    <Placemark>
      <name>AL313 Venta del Pobre</name>
      <description>Venta del Pobre</description>
      <Point>
        <coordinates>-2.07555556,36.99416667</coordinates>
      </Point>
    </Placemark>
    <Placemark>
      <name>AL314 Venta del Viso</name>
      <description>Venta del Viso</description>
      <Point>
        <coordinates>-2.69833333,36.79750000</coordinates>
      </Point>
    </Placemark>
    <Placemark>
      <name>AL315 Venta Gaspar</name>
      <description>Venta Gaspar</description>
      <Point>
        <coordinates>-2.38583333,36.86972222</coordinates>
      </Point>
    </Placemark>
    <Placemark>
      <name>AL316 Vera</name>
      <description>Vera</description>
      <Point>
        <coordinates>-1.87000000,37.24861111</coordinates>
      </Point>
    </Placemark>
    <Placemark>
      <name>AL317 Viator</name>
      <description>Viator</description>
      <Point>
        <coordinates>-2.42611111,36.88972222</coordinates>
      </Point>
    </Placemark>
    <Placemark>
      <name>AL318 Vicar</name>
      <description>Vicar</description>
      <Point>
        <coordinates>-2.64277778,36.83555556</coordinates>
      </Point>
    </Placemark>
    <Placemark>
      <name>AL319 Villaricos</name>
      <description>Villaricos</description>
      <Point>
        <coordinates>-1.77000000,37.25472222</coordinates>
      </Point>
    </Placemark>
    <Placemark>
      <name>AL320 Zurgena</name>
      <description>Zurgena</description>
      <Point>
        <coordinates>-2.03972222,37.34361111</coordinates>
      </Point>
    </Placemark>
    <Placemark>
      <name>CA001 Alcalá de los Gazules</name>
      <description>Alcalá de los Gazules</description>
      <Point>
        <coordinates>-5.72194444,36.46527778</coordinates>
      </Point>
    </Placemark>
    <Placemark>
      <name>CA002 Alcalá del Valle</name>
      <description>Alcalá del Valle</description>
      <Point>
        <coordinates>-5.17333333,36.90777778</coordinates>
      </Point>
    </Placemark>
    <Placemark>
      <name>CA003 Algar</name>
      <description>Algar</description>
      <Point>
        <coordinates>-5.65527778,36.65805556</coordinates>
      </Point>
    </Placemark>
    <Placemark>
      <name>CA004 Algeciras</name>
      <description>Algeciras</description>
      <Point>
        <coordinates>-5.45027778,36.13861111</coordinates>
      </Point>
    </Placemark>
    <Placemark>
      <name>CA005 Algodonales</name>
      <description>Algodonales</description>
      <Point>
        <coordinates>-5.40527778,36.88250000</coordinates>
      </Point>
    </Placemark>
    <Placemark>
      <name>CA006 Arcos de la Frontera</name>
      <description>Arcos de la Frontera</description>
      <Point>
        <coordinates>-5.80972222,36.75250000</coordinates>
      </Point>
    </Placemark>
    <Placemark>
      <name>CA007 Aziscar</name>
      <description>Aziscar</description>
      <Point>
        <coordinates>-5.71638889,36.19611111</coordinates>
      </Point>
    </Placemark>
    <Placemark>
      <name>CA008 Barbate</name>
      <description>Barbate</description>
      <Point>
        <coordinates>-5.91944444,36.19388889</coordinates>
      </Point>
    </Placemark>
    <Placemark>
      <name>CA009 Barelo</name>
      <description>Barelo</description>
      <Point>
        <coordinates>-5.88277778,36.25222222</coordinates>
      </Point>
    </Placemark>
    <Placemark>
      <name>CA010 Barrio Nuevo</name>
      <description>Barrio Nuevo</description>
      <Point>
        <coordinates>-6.07305556,36.34027778</coordinates>
      </Point>
    </Placemark>
    <Placemark>
      <name>CA011 Benalup</name>
      <description>Benalup</description>
      <Point>
        <coordinates>-5.80888889,36.34638889</coordinates>
      </Point>
    </Placemark>
    <Placemark>
      <name>CA012 Benamahoma</name>
      <description>Benamahoma</description>
      <Point>
        <coordinates>-5.46472222,36.76833333</coordinates>
      </Point>
    </Placemark>
    <Placemark>
      <name>CA013 Benaocaz</name>
      <description>Benaocaz</description>
      <Point>
        <coordinates>-5.42000000,36.70694444</coordinates>
      </Point>
    </Placemark>
    <Placemark>
      <name>CA014 Bonanza</name>
      <description>Bonanza</description>
      <Point>
        <coordinates>-6.33611111,36.80305556</coordinates>
      </Point>
    </Placemark>
    <Placemark>
      <name>CA015 Bornos</name>
      <description>Bornos</description>
      <Point>
        <coordinates>-5.74222222,36.82194444</coordinates>
      </Point>
    </Placemark>
    <Placemark>
      <name>CA016 Cádiz</name>
      <description>Cádiz</description>
      <Point>
        <coordinates>-6.28250000,36.52305556</coordinates>
      </Point>
    </Placemark>
    <Placemark>
      <name>CA017 Campano</name>
      <description>Campano</description>
      <Point>
        <coordinates>-6.13305556,36.36055556</coordinates>
      </Point>
    </Placemark>
    <Placemark>
      <name>CA018 Cantarranas</name>
      <description>Cantarranas</description>
      <Point>
        <coordinates>-5.87777778,36.32388889</coordinates>
      </Point>
    </Placemark>
    <Placemark>
      <name>CA019 Casa de Postas</name>
      <description>Casa de Postas</description>
      <Point>
        <coordinates>-6.07055556,36.29722222</coordinates>
      </Point>
    </Placemark>
    <Placemark>
      <name>CA020 Caserío de San Bernardino</name>
      <description>Caserío de San Bernardino</description>
      <Point>
        <coordinates>-5.79944444,36.92083333</coordinates>
      </Point>
    </Placemark>
    <Placemark>
      <name>CA021 Castellar de la Frontera</name>
      <description>Castellar de la Frontera</description>
      <Point>
        <coordinates>-5.41555556,36.28805556</coordinates>
      </Point>
    </Placemark>
    <Placemark>
      <name>CA022 Castillo de Castellar</name>
      <description>Castillo de Castellar</description>
      <Point>
        <coordinates>-5.45111111,36.32694444</coordinates>
      </Point>
    </Placemark>
    <Placemark>
      <name>CA023 Chiclana</name>
      <description>Chiclana</description>
      <Point>
        <coordinates>-6.14666667,36.42250000</coordinates>
      </Point>
    </Placemark>
    <Placemark>
      <name>CA024 Chipiona</name>
      <description>Chipiona</description>
      <Point>
        <coordinates>-6.42916667,36.73555556</coordinates>
      </Point>
    </Placemark>
    <Placemark>
      <name>CA025 Conil de la Frontera</name>
      <description>Conil de la Frontera</description>
      <Point>
        <coordinates>-6.08611111,36.27805556</coordinates>
      </Point>
    </Placemark>
    <Placemark>
      <name>CA026 Cortijo Cápita</name>
      <description>Cortijo Cápita</description>
      <Point>
        <coordinates>-6.11777778,36.84750000</coordinates>
      </Point>
    </Placemark>
    <Placemark>
      <name>CA027 Cortijo de Albalate</name>
      <description>Cortijo de Albalate</description>
      <Point>
        <coordinates>-5.37555556,36.24388889</coordinates>
      </Point>
    </Placemark>
    <Placemark>
      <name>CA028 Cortijo de Alíjar</name>
      <description>Cortijo de Alíjar</description>
      <Point>
        <coordinates>-6.28944444,36.73583333</coordinates>
      </Point>
    </Placemark>
    <Placemark>
      <name>CA029 Cortijo de la Chirigota</name>
      <description>Cortijo de la Chirigota</description>
      <Point>
        <coordinates>-5.65472222,36.97138889</coordinates>
      </Point>
    </Placemark>
    <Placemark>
      <name>CA030 Cortijo de los Pozuelos</name>
      <description>Cortijo de los Pozuelos</description>
      <Point>
        <coordinates>-5.62138889,36.94111111</coordinates>
      </Point>
    </Placemark>
    <Placemark>
      <name>CA031 Cortijo de Puertollano</name>
      <description>Cortijo de Puertollano</description>
      <Point>
        <coordinates>-5.70722222,36.89055556</coordinates>
      </Point>
    </Placemark>
    <Placemark>
      <name>CA032 Cortijo de Tierras Nuevas</name>
      <description>Cortijo de Tierras Nuevas</description>
      <Point>
        <coordinates>-5.55944444,36.85388889</coordinates>
      </Point>
    </Placemark>
    <Placemark>
      <name>CA033 Cortijo la Alcaria</name>
      <description>Cortijo la Alcaria</description>
      <Point>
        <coordinates>-5.51555556,36.64194444</coordinates>
      </Point>
    </Placemark>
    <Placemark>
      <name>CA034 Cortijo las Cobatillas</name>
      <description>Cortijo las Cobatillas</description>
      <Point>
        <coordinates>-5.78472222,36.41916667</coordinates>
      </Point>
    </Placemark>
    <Placemark>
      <name>CA035 Doña Blanca</name>
      <description>Doña Blanca</description>
      <Point>
        <coordinates>-6.16444444,36.61416667</coordinates>
      </Point>
    </Placemark>
    <Placemark>
      <name>CA036 El Acebuchal</name>
      <description>El Acebuchal</description>
      <Point>
        <coordinates>-5.76638889,36.16583333</coordinates>
      </Point>
    </Placemark>
    <Placemark>
      <name>CA037 El Almarchal</name>
      <description>El Almarchal</description>
      <Point>
        <coordinates>-5.80500000,36.14638889</coordinates>
      </Point>
    </Placemark>
    <Placemark>
      <name>CA038 El Berrueco</name>
      <description>El Berrueco</description>
      <Point>
        <coordinates>-6.04416667,36.45333333</coordinates>
      </Point>
    </Placemark>
    <Placemark>
      <name>CA039 El Bosque</name>
      <description>El Bosque</description>
      <Point>
        <coordinates>-5.50361111,36.76222222</coordinates>
      </Point>
    </Placemark>
    <Placemark>
      <name>CA040 El Colorado</name>
      <description>El Colorado</description>
      <Point>
        <coordinates>-6.09250000,36.34277778</coordinates>
      </Point>
    </Placemark>
    <Placemark>
      <name>CA041 El Gastor</name>
      <description>El Gastor</description>
      <Point>
        <coordinates>-5.32333333,36.85722222</coordinates>
      </Point>
    </Placemark>
    <Placemark>
      <name>CA042 El Jautor</name>
      <description>El Jautor</description>
      <Point>
        <coordinates>-5.63055556,36.34916667</coordinates>
      </Point>
    </Placemark>
    <Placemark>
      <name>CA043 El Lentiscar</name>
      <description>El Lentiscar</description>
      <Point>
        <coordinates>-5.76361111,36.09000000</coordinates>
      </Point>
    </Placemark>
    <Placemark>
      <name>CA044 El Morisco</name>
      <description>El Morisco</description>
      <Point>
        <coordinates>-5.73694444,36.91416667</coordinates>
      </Point>
    </Placemark>
    <Placemark>
      <name>CA045 El Palmar</name>
      <description>El Palmar</description>
      <Point>
        <coordinates>-6.06250000,36.22777778</coordinates>
      </Point>
    </Placemark>
    <Placemark>
      <name>CA046 El Parralejo</name>
      <description>El Parralejo</description>
      <Point>
        <coordinates>-5.97861111,36.30388889</coordinates>
      </Point>
    </Placemark>
    <Placemark>
      <name>CA047 El Pelayo</name>
      <description>El Pelayo</description>
      <Point>
        <coordinates>-5.46527778,36.09888889</coordinates>
      </Point>
    </Placemark>
    <Placemark>
      <name>CA048 El Portal</name>
      <description>El Portal</description>
      <Point>
        <coordinates>-6.13361111,36.64055556</coordinates>
      </Point>
    </Placemark>
    <Placemark>
      <name>CA049 El Puerto de Santa María</name>
      <description>El Puerto de Santa María</description>
      <Point>
        <coordinates>-6.22638889,36.60277778</coordinates>
      </Point>
    </Placemark>
    <Placemark>
      <name>CA050 El Rinconcillo</name>
      <description>El Rinconcillo</description>
      <Point>
        <coordinates>-5.47138889,36.15055556</coordinates>
      </Point>
    </Placemark>
    <Placemark>
      <name>CA051 Espera</name>
      <description>Espera</description>
      <Point>
        <coordinates>-5.80583333,36.87361111</coordinates>
      </Point>
    </Placemark>
    <Placemark>
      <name>CA052 Facinas</name>
      <description>Facinas</description>
      <Point>
        <coordinates>-5.70055556,36.14500000</coordinates>
      </Point>
    </Placemark>
    <Placemark>
      <name>CA053 Gibalgín</name>
      <description>Gibalgín</description>
      <Point>
        <coordinates>-5.91583333,36.83750000</coordinates>
      </Point>
    </Placemark>
    <Placemark>
      <name>CA054 Grazalema</name>
      <description>Grazalema</description>
      <Point>
        <coordinates>-5.36916667,36.76222222</coordinates>
      </Point>
    </Placemark>
    <Placemark>
      <name>CA055 Guadalcacín</name>
      <description>Guadalcacín</description>
      <Point>
        <coordinates>-6.08611111,36.71250000</coordinates>
      </Point>
    </Placemark>
    <Placemark>
      <name>CA056 Guadarranque</name>
      <description>Guadarranque</description>
      <Point>
        <coordinates>-5.41055556,36.18666667</coordinates>
      </Point>
    </Placemark>
    <Placemark>
      <name>CA057 Guadiaro</name>
      <description>Guadiaro</description>
      <Point>
        <coordinates>-5.30750000,36.30194444</coordinates>
      </Point>
    </Placemark>
    <Placemark>
      <name>CA058 Jandilla</name>
      <description>Jandilla</description>
      <Point>
        <coordinates>-5.89277778,36.27305556</coordinates>
      </Point>
    </Placemark>
    <Placemark>
      <name>CA059 Jarana</name>
      <description>Jarana</description>
      <Point>
        <coordinates>-6.14277778,36.51277778</coordinates>
      </Point>
    </Placemark>
    <Placemark>
      <name>CA060 Jédula</name>
      <description>Jédula</description>
      <Point>
        <coordinates>-5.93305556,36.72777778</coordinates>
      </Point>
    </Placemark>
    <Placemark>
      <name>CA061 Jerez de la Frontera</name>
      <description>Jerez de la Frontera</description>
      <Point>
        <coordinates>-6.13416667,36.69277778</coordinates>
      </Point>
    </Placemark>
    <Placemark>
      <name>CA062 Jimena de la Frontera</name>
      <description>Jimena de la Frontera</description>
      <Point>
        <coordinates>-5.45305556,36.43777778</coordinates>
      </Point>
    </Placemark>
    <Placemark>
      <name>CA063 Juncales</name>
      <description>Juncales</description>
      <Point>
        <coordinates>-5.42583333,36.91916667</coordinates>
      </Point>
    </Placemark>
    <Placemark>
      <name>CA064 Junta de los Ríos</name>
      <description>Junta de los Ríos</description>
      <Point>
        <coordinates>-5.86250000,36.70250000</coordinates>
      </Point>
    </Placemark>
    <Placemark>
      <name>CA065 La Algaida</name>
      <description>La Algaida</description>
      <Point>
        <coordinates>-6.33055556,36.82250000</coordinates>
      </Point>
    </Placemark>
    <Placemark>
      <name>CA066 La Almoraina</name>
      <description>La Almoraina</description>
      <Point>
        <coordinates>-5.43000000,36.28111111</coordinates>
      </Point>
    </Placemark>
    <Placemark>
      <name>CA067 La Barrosa</name>
      <description>La Barrosa</description>
      <Point>
        <coordinates>-6.17527778,36.37500000</coordinates>
      </Point>
    </Placemark>
    <Placemark>
      <name>CA068 La Estación</name>
      <description>La Estación</description>
      <Point>
        <coordinates>-5.42916667,36.22138889</coordinates>
      </Point>
    </Placemark>
    <Placemark>
      <name>CA069 La Jara</name>
      <description>La Jara</description>
      <Point>
        <coordinates>-6.39861111,36.76111111</coordinates>
      </Point>
    </Placemark>
    <Placemark>
      <name>CA070 La Jarda</name>
      <description>La Jarda</description>
      <Point>
        <coordinates>-5.57805556,36.60027778</coordinates>
      </Point>
    </Placemark>
    <Placemark>
      <name>CA071 La Línea de la Concepción</name>
      <description>La Línea de la Concepción</description>
      <Point>
        <coordinates>-5.34666667,36.17250000</coordinates>
      </Point>
    </Placemark>
    <Placemark>
      <name>CA072 La Mata</name>
      <description>La Mata</description>
      <Point>
        <coordinates>-6.30916667,36.62555556</coordinates>
      </Point>
    </Placemark>
    <Placemark>
      <name>CA073 La Muela</name>
      <description>La Muela</description>
      <Point>
        <coordinates>-5.41194444,36.93166667</coordinates>
      </Point>
    </Placemark>
    <Placemark>
      <name>CA074 La Muela de Vejer</name>
      <description>La Muela de Vejer</description>
      <Point>
        <coordinates>-5.99027778,36.27194444</coordinates>
      </Point>
    </Placemark>
    <Placemark>
      <name>CA075 La Parra</name>
      <description>La Parra</description>
      <Point>
        <coordinates>-6.06666667,36.75083333</coordinates>
      </Point>
    </Placemark>
    <Placemark>
      <name>CA076 La Zarzuela</name>
      <description>La Zarzuela</description>
      <Point>
        <coordinates>-5.81611111,36.17055556</coordinates>
      </Point>
    </Placemark>
    <Placemark>
      <name>CA077 Las Lomas</name>
      <description>Las Lomas</description>
      <Point>
        <coordinates>-5.88111111,36.30805556</coordinates>
      </Point>
    </Placemark>
    <Placemark>
      <name>CA078 Libreros</name>
      <description>Libreros</description>
      <Point>
        <coordinates>-5.93027778,36.28166667</coordinates>
      </Point>
    </Placemark>
    <Placemark>
      <name>CA079 Los Ángeles</name>
      <description>Los Ángeles</description>
      <Point>
        <coordinates>-5.43527778,36.42111111</coordinates>
      </Point>
    </Placemark>
    <Placemark>
      <name>CA080 Los Baladejos</name>
      <description>Los Baladejos</description>
      <Point>
        <coordinates>-5.87611111,36.37611111</coordinates>
      </Point>
    </Placemark>
    <Placemark>
      <name>CA081 Los Barrios</name>
      <description>Los Barrios</description>
      <Point>
        <coordinates>-5.49277778,36.18722222</coordinates>
      </Point>
    </Placemark>
    <Placemark>
      <name>CA082 Los Caños de Meca</name>
      <description>Los Caños de Meca</description>
      <Point>
        <coordinates>-6.35000000,36.18638889</coordinates>
      </Point>
    </Placemark>
    <Placemark>
      <name>CA083 Los Naveros</name>
      <description>Los Naveros</description>
      <Point>
        <coordinates>-5.97500000,36.36250000</coordinates>
      </Point>
    </Placemark>
    <Placemark>
      <name>CA084 Marchenilla</name>
      <description>Marchenilla</description>
      <Point>
        <coordinates>-5.42277778,36.39277778</coordinates>
      </Point>
    </Placemark>
    <Placemark>
      <name>CA085 Matagorda</name>
      <description>Matagorda</description>
      <Point>
        <coordinates>-6.24638889,36.51750000</coordinates>
      </Point>
    </Placemark>
    <Placemark>
      <name>CA086 Medina Sidonia</name>
      <description>Medina Sidonia</description>
      <Point>
        <coordinates>-5.92777778,36.46333333</coordinates>
      </Point>
    </Placemark>
    <Placemark>
      <name>CA087 Mesas de Asta</name>
      <description>Mesas de Asta</description>
      <Point>
        <coordinates>-6.17361111,36.78500000</coordinates>
      </Point>
    </Placemark>
    <Placemark>
      <name>CA088 Mesas de Santiago</name>
      <description>Mesas de Santiago</description>
      <Point>
        <coordinates>-5.95055556,36.76833333</coordinates>
      </Point>
    </Placemark>
    <Placemark>
      <name>CA089 Molino de Castro</name>
      <description>Molino de Castro</description>
      <Point>
        <coordinates>-5.64166667,36.46583333</coordinates>
      </Point>
    </Placemark>
    <Placemark>
      <name>CA090 Nueva Jarilla</name>
      <description>Nueva Jarilla</description>
      <Point>
        <coordinates>-6.03305556,36.75694444</coordinates>
      </Point>
    </Placemark>
    <Placemark>
      <name>CA091 Olvera</name>
      <description>Olvera</description>
      <Point>
        <coordinates>-5.26305556,36.93722222</coordinates>
      </Point>
    </Placemark>
    <Placemark>
      <name>CA092 Palmones</name>
      <description>Palmones</description>
      <Point>
        <coordinates>-5.43277778,36.17805556</coordinates>
      </Point>
    </Placemark>
    <Placemark>
      <name>CA093 Paloma Baja</name>
      <description>Paloma Baja</description>
      <Point>
        <coordinates>-5.72750000,36.06972222</coordinates>
      </Point>
    </Placemark>
    <Placemark>
      <name>CA094 Patrite</name>
      <description>Patrite</description>
      <Point>
        <coordinates>-5.67500000,36.46500000</coordinates>
      </Point>
    </Placemark>
    <Placemark>
      <name>CA095 Pedregosillo</name>
      <description>Pedregosillo</description>
      <Point>
        <coordinates>-5.82638889,36.41083333</coordinates>
      </Point>
    </Placemark>
    <Placemark>
      <name>CA096 Pozo Amargo</name>
      <description>Pozo Amargo</description>
      <Point>
        <coordinates>-5.43250000,37.02611111</coordinates>
      </Point>
    </Placemark>
    <Placemark>
      <name>CA097 Prado del Rey</name>
      <description>Prado del Rey</description>
      <Point>
        <coordinates>-5.55916667,36.78888889</coordinates>
      </Point>
    </Placemark>
    <Placemark>
      <name>CA098 Puente Mayorga</name>
      <description>Puente Mayorga</description>
      <Point>
        <coordinates>-5.38750000,36.18305556</coordinates>
      </Point>
    </Placemark>
    <Placemark>
      <name>CA099 Puerto Real</name>
      <description>Puerto Real</description>
      <Point>
        <coordinates>-6.18333333,36.53472222</coordinates>
      </Point>
    </Placemark>
    <Placemark>
      <name>CA100 Puerto Serrano</name>
      <description>Puerto Serrano</description>
      <Point>
        <coordinates>-5.54472222,36.92666667</coordinates>
      </Point>
    </Placemark>
    <Placemark>
      <name>CA101 Rota</name>
      <description>Rota</description>
      <Point>
        <coordinates>-6.36194444,36.62472222</coordinates>
      </Point>
    </Placemark>
    <Placemark>
      <name>CA102 San Enrique</name>
      <description>San Enrique</description>
      <Point>
        <coordinates>-5.28972222,36.30777778</coordinates>
      </Point>
    </Placemark>
    <Placemark>
      <name>CA103 San Fernando</name>
      <description>San Fernando</description>
      <Point>
        <coordinates>-6.19750000,36.47027778</coordinates>
      </Point>
    </Placemark>
    <Placemark>
      <name>CA104 San José de Malcocinado</name>
      <description>San José de Malcocinado</description>
      <Point>
        <coordinates>-5.86972222,36.36222222</coordinates>
      </Point>
    </Placemark>
    <Placemark>
      <name>CA105 San Martín del Tesorillo</name>
      <description>San Martín del Tesorillo</description>
      <Point>
        <coordinates>-5.31888889,36.34222222</coordinates>
      </Point>
    </Placemark>
    <Placemark>
      <name>CA106 San Roque</name>
      <description>San Roque</description>
      <Point>
        <coordinates>-5.38805556,36.21361111</coordinates>
      </Point>
    </Placemark>
    <Placemark>
      <name>CA107 Sancti Petri</name>
      <description>Sancti Petri</description>
      <Point>
        <coordinates>-6.20527778,36.39444444</coordinates>
      </Point>
    </Placemark>
    <Placemark>
      <name>CA108 Sanlúcar de Barrameda</name>
      <description>Sanlúcar de Barrameda</description>
      <Point>
        <coordinates>-6.35111111,36.78277778</coordinates>
      </Point>
    </Placemark>
    <Placemark>
      <name>CA109 Setenil</name>
      <description>Setenil</description>
      <Point>
        <coordinates>-5.17888889,36.86666667</coordinates>
      </Point>
    </Placemark>
    <Placemark>
      <name>CA110 Sotogrande</name>
      <description>Sotogrande</description>
      <Point>
        <coordinates>-5.30500000,36.28722222</coordinates>
      </Point>
    </Placemark>
    <Placemark>
      <name>CA111 Tahivilla</name>
      <description>Tahivilla</description>
      <Point>
        <coordinates>-5.75888889,36.18472222</coordinates>
      </Point>
    </Placemark>
    <Placemark>
      <name>CA112 Taraguilla</name>
      <description>Taraguilla</description>
      <Point>
        <coordinates>-5.42250000,36.21000000</coordinates>
      </Point>
    </Placemark>
    <Placemark>
      <name>CA113 Tarifa</name>
      <description>Tarifa</description>
      <Point>
        <coordinates>-5.59888889,36.01777778</coordinates>
      </Point>
    </Placemark>
    <Placemark>
      <name>CA114 Torre Alhaquime</name>
      <description>Torre Alhaquime</description>
      <Point>
        <coordinates>-5.23388889,36.91722222</coordinates>
      </Point>
    </Placemark>
    <Placemark>
      <name>CA115 Torre del Puerco</name>
      <description>Torre del Puerco</description>
      <Point>
        <coordinates>-6.16000000,36.34194444</coordinates>
      </Point>
    </Placemark>
    <Placemark>
      <name>CA116 Torre Nueva</name>
      <description>Torre Nueva</description>
      <Point>
        <coordinates>-6.06944444,36.23583333</coordinates>
      </Point>
    </Placemark>
    <Placemark>
      <name>CA117 Trebujena</name>
      <description>Trebujena</description>
      <Point>
        <coordinates>-6.17444444,36.86944444</coordinates>
      </Point>
    </Placemark>
    <Placemark>
      <name>CA118 Ubrique</name>
      <description>Ubrique</description>
      <Point>
        <coordinates>-5.44583333,36.67916667</coordinates>
      </Point>
    </Placemark>
    <Placemark>
      <name>CA119 Valdelagrana</name>
      <description>Valdelagrana</description>
      <Point>
        <coordinates>-6.22277778,36.58277778</coordinates>
      </Point>
    </Placemark>
    <Placemark>
      <name>CA120 Vejer de la Frontera</name>
      <description>Vejer de la Frontera</description>
      <Point>
        <coordinates>-5.96611111,36.25277778</coordinates>
      </Point>
    </Placemark>
    <Placemark>
      <name>CA121 Villamartín</name>
      <description>Villamartín</description>
      <Point>
        <coordinates>-5.64444444,36.86388889</coordinates>
      </Point>
    </Placemark>
    <Placemark>
      <name>CA122 Villanueva del Rosario</name>
      <description>Villanueva del Rosario</description>
      <Point>
        <coordinates>-5.38472222,36.69750000</coordinates>
      </Point>
    </Placemark>
    <Placemark>
      <name>CA123 Zahara</name>
      <description>Zahara</description>
      <Point>
        <coordinates>-5.38833333,36.84055556</coordinates>
      </Point>
    </Placemark>
    <Placemark>
      <name>CA124 Zahara de los Atunes</name>
      <description>Zahara de los Atunes</description>
      <Point>
        <coordinates>-5.84305556,36.13805556</coordinates>
      </Point>
    </Placemark>
    <Placemark>
      <name>CO001 Adamuz</name>
      <description>Adamuz</description>
      <Point>
        <coordinates>-4.52388889,38.03083333</coordinates>
      </Point>
    </Placemark>
    <Placemark>
      <name>CO002 Aguilar de la Frontera</name>
      <description>Aguilar de la Frontera</description>
      <Point>
        <coordinates>-4.65777778,37.51888889</coordinates>
      </Point>
    </Placemark>
    <Placemark>
      <name>CO003 Albendín</name>
      <description>Albendín</description>
      <Point>
        <coordinates>-4.23583333,37.67166667</coordinates>
      </Point>
    </Placemark>
    <Placemark>
      <name>CO004 Alcaracejos</name>
      <description>Alcaracejos</description>
      <Point>
        <coordinates>-4.96638889,38.38777778</coordinates>
      </Point>
    </Placemark>
    <Placemark>
      <name>CO005 Alcolea</name>
      <description>Alcolea</description>
      <Point>
        <coordinates>-4.67250000,37.93500000</coordinates>
      </Point>
    </Placemark>
    <Placemark>
      <name>CO006 Aldea Quintana</name>
      <description>Aldea Quintana</description>
      <Point>
        <coordinates>-4.87111111,37.71166667</coordinates>
      </Point>
    </Placemark>
    <Placemark>
      <name>CO007 Algallarín</name>
      <description>Algallarín</description>
      <Point>
        <coordinates>-4.45416667,38.00138889</coordinates>
      </Point>
    </Placemark>
    <Placemark>
      <name>CO008 Almedinilla</name>
      <description>Almedinilla</description>
      <Point>
        <coordinates>-4.08583333,37.44361111</coordinates>
      </Point>
    </Placemark>
    <Placemark>
      <name>CO009 Almodóvar del Río</name>
      <description>Almodóvar del Río</description>
      <Point>
        <coordinates>-5.02166667,37.81527778</coordinates>
      </Point>
    </Placemark>
    <Placemark>
      <name>CO010 Añora</name>
      <description>Añora</description>
      <Point>
        <coordinates>-4.89944444,38.41166667</coordinates>
      </Point>
    </Placemark>
    <Placemark>
      <name>CO011 Argallón</name>
      <description>Argallón</description>
      <Point>
        <coordinates>-5.48583333,38.20333333</coordinates>
      </Point>
    </Placemark>
    <Placemark>
      <name>CO012 Azuel</name>
      <description>Azuel</description>
      <Point>
        <coordinates>-4.32833333,38.32666667</coordinates>
      </Point>
    </Placemark>
    <Placemark>
      <name>CO013 Baena</name>
      <description>Baena</description>
      <Point>
        <coordinates>-4.32416667,37.61916667</coordinates>
      </Point>
    </Placemark>
    <Placemark>
      <name>CO014 Belalcázar</name>
      <description>Belalcázar</description>
      <Point>
        <coordinates>-5.16638889,38.57722222</coordinates>
      </Point>
    </Placemark>
    <Placemark>
      <name>CO015 Belmez</name>
      <description>Belmez</description>
      <Point>
        <coordinates>-5.20750000,38.27583333</coordinates>
      </Point>
    </Placemark>
    <Placemark>
      <name>CO016 Bembézar</name>
      <description>Bembézar</description>
      <Point>
        <coordinates>-5.23305556,37.79777778</coordinates>
      </Point>
    </Placemark>
    <Placemark>
      <name>CO017 Benamejí</name>
      <description>Benamejí</description>
      <Point>
        <coordinates>-4.53972222,37.27111111</coordinates>
      </Point>
    </Placemark>
    <Placemark>
      <name>CO018 Bujalance</name>
      <description>Bujalance</description>
      <Point>
        <coordinates>-4.37861111,37.89555556</coordinates>
      </Point>
    </Placemark>
    <Placemark>
      <name>CO019 Cabra</name>
      <description>Cabra</description>
      <Point>
        <coordinates>-4.43666667,37.47361111</coordinates>
      </Point>
    </Placemark>
    <Placemark>
      <name>CO020 Campo Nubes</name>
      <description>Campo Nubes</description>
      <Point>
        <coordinates>-4.16111111,37.54527778</coordinates>
      </Point>
    </Placemark>
    <Placemark>
      <name>CO021 Cañada del Gamo</name>
      <description>Cañada del Gamo</description>
      <Point>
        <coordinates>-5.40500000,38.20750000</coordinates>
      </Point>
    </Placemark>
    <Placemark>
      <name>CO022 Cañete de las Torres</name>
      <description>Cañete de las Torres</description>
      <Point>
        <coordinates>-4.31666667,37.86944444</coordinates>
      </Point>
    </Placemark>
    <Placemark>
      <name>CO023 Carcabuey</name>
      <description>Carcabuey</description>
      <Point>
        <coordinates>-4.27222222,37.44500000</coordinates>
      </Point>
    </Placemark>
    <Placemark>
      <name>CO024 Cardeña</name>
      <description>Cardeña</description>
      <Point>
        <coordinates>-4.32222222,38.27222222</coordinates>
      </Point>
    </Placemark>
    <Placemark>
      <name>CO025 Castil de Campos</name>
      <description>Castil de Campos</description>
      <Point>
        <coordinates>-4.14166667,37.49277778</coordinates>
      </Point>
    </Placemark>
    <Placemark>
      <name>CO026 Castro del Río</name>
      <description>Castro del Río</description>
      <Point>
        <coordinates>-4.47888889,37.69250000</coordinates>
      </Point>
    </Placemark>
    <Placemark>
      <name>CO027 Central Térmica Puente Nuevo</name>
      <description>Central Térmica Puente Nuevo</description>
      <Point>
        <coordinates>-4.93694444,38.11222222</coordinates>
      </Point>
    </Placemark>
    <Placemark>
      <name>CO028 Cerro Muriano</name>
      <description>Cerro Muriano</description>
      <Point>
        <coordinates>-4.77027778,38.00583333</coordinates>
      </Point>
    </Placemark>
    <Placemark>
      <name>CO029 Céspedes</name>
      <description>Céspedes</description>
      <Point>
        <coordinates>-5.25861111,37.75305556</coordinates>
      </Point>
    </Placemark>
    <Placemark>
      <name>CO030 Conquista</name>
      <description>Conquista</description>
      <Point>
        <coordinates>-4.50027778,38.40944444</coordinates>
      </Point>
    </Placemark>
    <Placemark>
      <name>CO031 Córdoba</name>
      <description>Córdoba</description>
      <Point>
        <coordinates>-4.77416667,37.87416667</coordinates>
      </Point>
    </Placemark>
    <Placemark>
      <name>CO032 Cordobilla</name>
      <description>Cordobilla</description>
      <Point>
        <coordinates>-4.73027778,37.36083333</coordinates>
      </Point>
    </Placemark>
    <Placemark>
      <name>CO033 Cuenca</name>
      <description>Cuenca</description>
      <Point>
        <coordinates>-5.55527778,38.32583333</coordinates>
      </Point>
    </Placemark>
    <Placemark>
      <name>CO034 Doña Mencia</name>
      <description>Doña Mencia</description>
      <Point>
        <coordinates>-4.35277778,37.55916667</coordinates>
      </Point>
    </Placemark>
    <Placemark>
      <name>CO035 Doña Rama</name>
      <description>Doña Rama</description>
      <Point>
        <coordinates>-5.27194444,38.22222222</coordinates>
      </Point>
    </Placemark>
    <Placemark>
      <name>CO036 Dos Torres</name>
      <description>Dos Torres</description>
      <Point>
        <coordinates>-4.89500000,38.44472222</coordinates>
      </Point>
    </Placemark>
    <Placemark>
      <name>CO037 El Aguila</name>
      <description>El Aguila</description>
      <Point>
        <coordinates>-5.37500000,37.86000000</coordinates>
      </Point>
    </Placemark>
    <Placemark>
      <name>CO038 El Alcornocal</name>
      <description>El Alcornocal</description>
      <Point>
        <coordinates>-5.32722222,38.18222222</coordinates>
      </Point>
    </Placemark>
    <Placemark>
      <name>CO039 El Arenal</name>
      <description>El Arenal</description>
      <Point>
        <coordinates>-4.56750000,37.63694444</coordinates>
      </Point>
    </Placemark>
    <Placemark>
      <name>CO040 El Cabril</name>
      <description>El Cabril</description>
      <Point>
        <coordinates>-5.41305556,38.07555556</coordinates>
      </Point>
    </Placemark>
    <Placemark>
      <name>CO049 El Calonge</name>
      <description>El Calonge</description>
      <Point>
        <coordinates>-5.39000000,37.67055556</coordinates>
      </Point>
    </Placemark>
    <Placemark>
      <name>CO050 El Cañuelo</name>
      <description>El Cañuelo</description>
      <Point>
        <coordinates>-4.16138889,37.50972222</coordinates>
      </Point>
    </Placemark>
    <Placemark>
      <name>CO051 El Carpio</name>
      <description>El Carpio</description>
      <Point>
        <coordinates>-4.49027778,37.94000000</coordinates>
      </Point>
    </Placemark>
    <Placemark>
      <name>CO053 El Entredicho</name>
      <description>El Entredicho</description>
      <Point>
        <coordinates>-5.20000000,38.21333333</coordinates>
      </Point>
    </Placemark>
    <Placemark>
      <name>CO055 El Fontanar</name>
      <description>El Fontanar</description>
      <Point>
        <coordinates>-4.80277778,37.55916667</coordinates>
      </Point>
    </Placemark>
    <Placemark>
      <name>CO056 El Garabato</name>
      <description>El Garabato</description>
      <Point>
        <coordinates>-4.97777778,37.68388889</coordinates>
      </Point>
    </Placemark>
    <Placemark>
      <name>CO057 El Higueral</name>
      <description>El Higueral</description>
      <Point>
        <coordinates>-4.25472222,37.32083333</coordinates>
      </Point>
    </Placemark>
    <Placemark>
      <name>CO058 El Higuerón</name>
      <description>El Higuerón</description>
      <Point>
        <coordinates>-4.84166667,37.85777778</coordinates>
      </Point>
    </Placemark>